token,latitude,longitude,address,comment,explanation,time,categorie,cityname
7A2D0349,43.608821110056866,3.8487704470753674,"Avenue de la Liberté, Montpellier",nbrx morceaux de verre sur la largeur de la piste,,2024-05-25 14:36:00,9,Montpellier
14DA3579,43.63767712252207,3.8305941224098206,"Ligne 9, Montpellier",végétation jamais entretenue,,2024-05-22 11:48:00,4,Montpellier
AA1CA063,43.60602222222222,3.8730777777777776,"Cours Gambetta, Montpellier",Roue dans les Rails du tram,La personne venait d’une rue perpendiculaire et s’est tapé la tête contre la margelle,2024-05-16 11:55:00,9,Montpellier
AF00A88E,43.61792,3.88207,"Rue de la Cavalerie, Montpellier",stationnement gênant récurrent ,stationnement gênant sur le trottoir systématique rendant le passage des piétons impossible. Obligé de passer sur la route.,2024-05-15 19:03:00,2,Montpellier
B9B3C9BA,43.59616605583544,3.8976889103651047,"Rue des Acconiers, Montpellier",Risque de chute ,Poteau anti-stationnement en travers de la piste,2024-05-11 17:32:00,2,Montpellier
1441837B,43.598695142976176,3.904833644628525,"Avenue Nina Simone, Montpellier",Road to nowhere,,2024-05-08 15:34:00,3,Montpellier
CA159445,43.69645,3.8102,"Rue de Coulondres, Saint-Gély-du-Fesc",Véhicule stationné sur piste cyclable ,,2024-05-08 09:29:00,2,Saint-Gély-du-Fesc
CA467DD0,43.61932,3.88588,"Rue du Jeu de Mail des Abbés, Montpellier",dégradation de l'aménagement cyclable ,l'aménagement a été dégradé et laissé au milieu de la piste dans l'objectif de garer des véhicules sur le trottoir (visible en arrière plan),2024-05-08 09:19:00,2,Montpellier
4C122262,43.63637847008788,3.8750205561518665,"Rue Antoine-Laurent Jussieu, Montpellier","Ben oui mais il travaille, lui!!",,2024-05-06 06:23:00,2,Montpellier
E7524E86,43.636355903569935,3.8751389086246486,"Rue Antoine-Laurent Jussieu, Montpellier","Ecole, pietons/enfants peuvent prendre la chaussé",,2024-05-06 06:23:00,2,Montpellier
2A49C46A,43.63648159654065,3.874800615012646,"Rue Antoine-Laurent Jussieu, Montpellier",devant l'école. Piétons/enfants ne passent pas,,2024-05-06 06:23:00,2,Montpellier
43B37741,43.69389419243387,3.809375166893006,"Rue du Devois, Saint-Gély-du-Fesc",Véhicule stationné sur piste cyclable ,,2024-05-04 09:06:00,2,Saint-Gély-du-Fesc
DF49EA9D,43.588218989824,3.8722310587763786,"Avenue de Maurin, Montpellier",ralentisseurs gênants ? Empruntez la BC,"Des ralentisseurs ont été installés avec juste assez de place pour les chauffeurs de passer à côté, sur la piste cyclable ! C'est hyper dangereux, car c'est un endroit où tout le monde roule excessivement vite",2024-05-03 14:48:00,3,Montpellier
4D581E43,43.63613460565436,3.8598808273673058,"Avenue Abbé Paul Parguel, Montpellier",plots en bétons en plein milieu rétrécissant la,"La piste cyclable est étroite et couplée avec des plots en béton au milieu, ce qui entrave la circulation, surtout pour les carrioles. En descente, ces obstacles deviennent particulièrement dangereux et gênants. 
J'ai malheureusement pu en faire l'expérience lors du déséquilibre de la carriole en voulant éviter le plot, occasionnant un choc physique et émotionnel pour mes enfants.
Serait il possible de changer ces plots par des poteaux qui seraient moins larges par exemple ?

",2024-05-03 06:26:00,3,Montpellier
115CBC13,43.60754489701478,3.896704574121471,"Avenue du Pirée, Montpellier",absence de signalisation sur espace partagé,espace partagé piéton/cycliste. un marquage au sol pour définir un espace pour les piéton et un espace cycliste serait bienvenu,2024-05-01 08:12:00,6,Montpellier
DA13E990,43.69402777777778,3.8094055555555553,"Rue du Devois, Saint-Gély-du-Fesc","Véhicule stationné en travers, sur piste cyclabl",,2024-04-21 09:53:00,2,Saint-Gély-du-Fesc
51740784,43.61237212684319,3.870022594928741,"Place Jacques Mirouze, Montpellier",pas de place pour la piscine ,,2024-04-16 06:54:00,8,Montpellier
FC9A4826,43.6009499,3.8804425,"Boulevard Rabelais, Montpellier",Défaut de la chaussé sur bande,Défaut de chaussé emmenant les usagers de la bande cyclable à se déporter inopinément sur la voie motorisé ce qui apporte un danger supplémentaire sur un boulevard déjà surchargé en véhicule motorisé.,2024-04-08 15:37:00,4,Montpellier
42F6E04B,43.596538888888894,3.9224527777777776,"Place Françoise Héritier, Montpellier",Squouate de l’espace piéton vélo OKLM,,2024-04-03 12:14:00,2,Montpellier
480D3466,43.6008,3.89295,"Avenue du Petit Train, Montpellier",rebord du trottoir très dangereux pour virage à ,,2024-04-02 06:40:00,3,Montpellier
E3B79D4F,43.66135125488785,3.9750599116086964,"Avenue Mendès France, Vendargues",égoïsme ,,2024-03-23 17:21:00,2,Vendargues
FA7BDFC7,43.65886846360422,3.972467556595802,"Rue du Stade, Vendargues",encore le même GCUM #coachfootball,,2024-03-22 17:22:00,2,Vendargues
8F0414E1,43.655721167076656,3.917360901832581,"Impasse Le Ribet, Jacou",espacement trop serré pour vélo volumineux ,Les bornes sont trop rapprochées pour passer facilement avec un vélo cargo ou avec un vélo plus carriole. C'est assez dangereux si on reste bloqué sur le passage et que des voitures arrivent en même temps on reste au final coincé en travers de la route. ,2024-03-20 22:33:01,3,Jacou
B9EAB99C,43.65346859600572,3.9190386235713954,"Chemin de Caylus, Castelnau-le-Lez",Barrières trop rapprochées passage carriole ,Il y a 2 paires de barrière trop rapprochées au niveau du passage à niveau du tramway. Il est impossible de passer en restant sur le vélo avec une carriole. On doit systématiquement descendre à pied et c'est très difficile de manœuvrer. Ma fille de 4 ans est tombée sur les rails en vélo par inadvertance et j'ai eu du mal à l'aider car j'étais bloqué à manœuvrer mon vélo avec la carriole. De plus la signalétique au vert pour le passage piéton vélo est beaucoup trop court pour laisser un temps raisonnable pour traverser avant l'arrivée du tramway. ,2024-03-20 22:24:03,3,Castelnau-le-Lez
6D94236F,43.6016298,3.883847,"Boulevard Rabelais, Montpellier","Peu de signalisation sur route refaite, danger",,2024-03-20 13:01:00,6,Montpellier
FE860712,43.6001625,3.8779522,"Boulevard Vieussens, Montpellier",bande cyclable trop étroite + marquage effacé,Pont Boulevard Vieussens,2024-03-19 17:03:00,3,Montpellier
839C0E23,43.614,3.87821,"sainte Ursule , Montpellier",nombreux et de plus en plus de scooters sur les a,,2024-03-19 11:12:00,2,Montpellier
B93CBF6E,43.61222842008971,3.84572546929121,"Avenue de Lodève, Montpellier",deux livreurs garés sur la pc,,2024-03-15 08:28:00,2,Montpellier
007B7CC6,43.598990754662026,3.8884668471291666,"Rue Émile Gaboriau, Montpellier",trou au milieu du trottoir,,2024-03-07 13:42:00,4,Montpellier
55ED0ECD,43.60452115693811,3.88689637184143,"Rue de la Méditerranée, Montpellier",,,2024-03-06 08:36:00,2,Montpellier
1965A1B6,43.6282,3.81652,"Place Gabriel Monnet, Montpellier",arceaux vélos bloqués mairie de la mossob,,2024-03-05 09:02:00,2,Montpellier
C1572600,43.616836864520444,3.8973741540513593,"Avenue de la Pompignane, Montpellier",Comme d hab,,2024-03-04 16:17:00,2,Montpellier
D23C33AA,43.600322,3.8782818,"Boulevard Vieussens, Montpellier",Marquage effacé,Marquage effacé pour la bande cyclable et aussi sur la bande centrale pour les voitures qui se déportent donc sur la droite,2024-03-01 15:57:00,6,Montpellier
217717F3,43.59369198323899,3.904128558933735,"Allée de la Méditerranée, Montpellier",panneau vandalisé,,2024-02-29 09:28:00,4,Montpellier
19245A19,43.59381145203195,3.904099389910698,"Allée de la Méditerranée, Montpellier",panneaux vandalisés ,,2024-02-29 09:27:00,4,Montpellier
7E9352C6,43.60788768316615,3.8905525580048566,"Rue Léon Blum, Montpellier","Tournage d'un film, donc au milieu !",,2024-02-26 17:19:00,2,Montpellier
A7B59C59,43.5913406822852,3.9061988890171055,"Avenue Raymond Dugrand, Montpellier",panneau à terre ,,2024-02-26 08:55:00,4,Montpellier
40AA2391,43.65887913623664,3.972483985126019,"Rue du Stade, Vendargues",GCUM,,2024-02-24 16:52:00,2,Vendargues
137A3ACD,43.65856720351557,3.9712129533290863,"Rue de la Cadoule, Vendargues",et les piétons ?,,2024-02-24 16:50:00,2,Vendargues
8FBB47B7,43.60584526062039,3.889573886990547,"Rue de Montréal, Montpellier",Intersection Blum / Montréal : panneau cyclable H,,2024-02-19 17:22:00,6,Montpellier
CB698FB6,43.60983171951053,3.8966897875070567,"Allée Alegria Beracasa, Montpellier","Panneau cyclable HS, percuté par un livreur ",,2024-02-15 10:52:00,6,Montpellier
CE970A25,43.61323921503531,3.8743677735328674,"Rue du Cardinal de Cabrières, Montpellier","À cause de travaux, impossible de stationner un v",,2024-02-14 10:01:00,5,Montpellier
FB55F331,43.624615069584365,3.887493498623371,"Avenue de Castelnau, Montpellier",véhicule garé sur piste cyclable,,2024-02-13 11:26:00,2,Montpellier
FFEA259E,43.620422222222224,3.897463888888889,"Avenue de la Pompignane, Montpellier",Garée sur piste cyxlable,,2024-02-12 12:04:00,2,Montpellier
AC866C26,43.65836733286422,3.961816839873791,"Route de Jacou, Vendargues",warnings d'immunité ,,2024-02-12 07:18:00,2,Vendargues
63812A40,43.61053304287373,3.849704191088676,"Avenue de Lodève, Montpellier",bordure saillante de 2cm invisible dangereuse,"voie cyclable avenue de lodeve, en bout de ligne droite au carrefour avec la rue de la taillade, nouvel aménagement créant une chicane pour les cyclistes avec une bordure en débord de 2cm invisible. Le piège parfait pour une chute à vélo. Rue de la taillade ils ont pourtant fait une transition inclinée sécuritaire entre le trottoir et la voie cyclable.",2024-02-09 15:30:00,3,Montpellier
718D39BD,43.61029587074428,3.9137187972664833,"Avenue Albert Einstein, Montpellier",warnings d'immunité ,,2024-02-08 11:36:00,2,Montpellier
C7071E0A,43.593368542145875,3.8792701810598373,"Avenue des Prés d'Arènes, Montpellier","stationnement sur le trottoir, les piétons doiven",,2024-02-07 11:51:00,2,Montpellier
7D42E952,43.601690041006,3.881478980183601,"3 Rue Adolphe Mion, Montpellier",anneaux de stationnement insuffisant devant la sal,Le nombre d'anneaux de stationnement vélo est insuffisant devant la salle de sport. cette salle d'arts martiaux est fréquentée par un public jeune qui se déplace fréquemment en vélo. les anneaux sont toujours saturés aux horaires d'ouverture ,2024-02-05 16:10:33,3,Montpellier
6061BC32,43.60391396286617,3.895112648606301,"Boulevard des Consuls de Mer, Montpellier",insertion impossible sur piste qui est obligatoire,,2024-02-04 16:38:00,3,Montpellier
B1075A85,43.60392246022654,3.893347755074501,"Boulevard des Consuls de Mer, Montpellier",panneaux incohérents ,,2024-01-30 07:47:00,6,Montpellier
40887E54,43.60385520965597,3.893088586628437,"Chemin de Moularès, Montpellier",piste obligatoire mais peu accessible,,2024-01-30 07:45:00,3,Montpellier
EAEF4DD8,43.620648279626025,3.897487409412861,"Avenue de la Pompignane, Montpellier",piste cyclable systématiquement encombrée ,,2024-01-28 11:17:00,2,Montpellier
8B4E3025,43.60579130005593,3.8768970966339116,"Rue Durand, Montpellier",stationnement sur trottoir,Les piétons sont contraints de se déporter sur la voie,2024-01-28 10:45:00,2,Montpellier
78B40151,43.61428745574182,3.870261762000041,"Rue du Faubourg Saint-Jaumes, Montpellier",véhicule garé sur la piste cyclable,,2024-01-28 10:04:00,2,Montpellier
46F9BD01,43.59921,3.87911,"Boulevard de la Perruque, Montpellier",travaux non signalés hyper dangereux ,,2024-01-22 14:00:00,2,Montpellier
389CA40A,43.65520573690874,3.9684889186210635,"Passage Yvonne Barre, Vendargues",Vue de la hauteur d’un enfant ,Probleme vital au Passage piéton ,2024-01-20 09:52:00,2,Vendargues
D608F411,43.61594781412606,3.9001142978668217,"Rue du Petit Verger, Montpellier",Comme tt les jours ,,2024-01-19 15:34:00,2,Montpellier
E1EE2CFF,43.631057281104056,3.8610598763716557,"Place Eugène Bataillon, Montpellier",Les bus TAM passaient ; route à réduire de 2m mi,"réduire la taille de l'anneau diminuera les rayons de giration et donc les vitesses, et augmentera les zones tampon et donc la sécurité globale.",2024-01-18 08:35:00,3,Montpellier
914EB23F,43.6105287703614,3.871647476626095,"Place Giral, Montpellier","Impunité devant les affiches ""vidéoverbalisatio",stationnement interdit en zone de rencontre Art. R417-10,2024-01-18 07:27:00,7,Montpellier
1376B6D9,43.60775,3.86953,"Cours Gambetta, Montpellier",camionns sir la piste cyclable ,,2024-01-16 11:39:00,2,Montpellier
F15D2CB9,43.58777142469018,3.8720268756151195,"Avenue de Maurin, Montpellier","pour éviter les ralentisseurs, emprunter la piste",des ralentisseurs ont été installé sur l'avenue de Maurin. Aucune protection de la piste cyclable. Les voitures empruntent en masse la piste à grande vitesse.,2024-01-15 16:15:00,7,Montpellier
BD23F154,43.66089259142778,3.8657015562057495,"not found, Montferrier-sur-Lez",dépôts d'encombrants sur la piste cyclable ,,2024-01-15 07:20:00,2,Montferrier-sur-Lez
ACE5A075,43.607139635610025,3.8664766989080874,"Rue du Faubourg Figuerolles, Montpellier",Véhicule garé puis roulant sur la piste cyclable,,2024-01-12 16:33:00,2,Montpellier
75E0FB57,43.65560555555555,3.968088888888889,"Rue du Salaison, Vendargues",Manque panneau double sens cyclable,,2024-01-12 15:26:00,6,Vendargues
CD65B621,43.63092760905806,3.861146844086325,"Place Eugène Bataillon, Montpellier",Voirie trop large - à réduire.,,2024-01-10 10:15:00,3,Montpellier
BE52EFB6,43.594581437281725,3.87916624546051,"Avenue des Prés d'Arènes, Montpellier",véhicule arrêté plusieurs minutes sur piste cyc,,2024-01-06 13:47:00,2,Montpellier
641407D4,43.62078286449736,3.897464275360108,"Avenue de la Pompignane, Montpellier",,Aménagements insuffisants ,2023-12-23 10:20:00,2,Montpellier
4A7BD51D,43.60680153959841,3.884850516915321," 9 Rue Bayard, Montpellier",scooters au rack vélo+ poubelle ,,2023-12-19 16:20:00,2,Montpellier
96FD8E5F,43.61606638916331,3.8227171450853343,"Rue du Pilory, Montpellier","véhicules sur trottoir, collégiens sur la route",,2023-12-18 08:02:00,2,Montpellier
F9E64D4F,43.614853329562266,3.8699678092286547,"Rue du Faubourg Saint-Jaumes, Montpellier",Véhicule garé sur la piste cyclable,,2023-12-17 09:44:00,2,Montpellier
62EB8F68,43.62267,3.81072,"Avenue de Heidelberg, Montpellier","stade de la mosson, aucun arceau!!!!!",,2023-12-12 09:27:00,5,Montpellier
DE61D009,43.61599745303908,3.8225112855434418,"Rue du Pilory, Montpellier",Véhicules sur trottoir proximité collège ,,2023-12-12 07:52:00,2,Montpellier
F1B28E6B,43.61286927188222,3.8393783907729255,"Avenue des Garrats, Montpellier",Arceaux sciés place vélos Géant Casino Celleneu,"Découverte que des arceaux avaient été sciés, sans que ce soit visible, je les ai tordus pour éviter tout accrochage de vélo",2023-12-11 15:05:00,100,Montpellier
BC1E07A1,43.61606,3.82264,"Rue du Pilory, Montpellier",véhicules sur piste cyclable abords collège ,,2023-12-11 08:09:00,2,Montpellier
A3D5B041,43.61286927188222,3.873013257980347,"Rue de l'École de Médecine, Montpellier",,,2023-12-09 11:46:00,10,Montpellier
3CD3EF72,43.658419241082775,3.968876414000988,"Rue des Bergeries, Vendargues",,,2023-12-09 07:45:00,2,Vendargues
374666E8,43.63898690833743,3.8651168346405034,"Route de Mende, Montpellier",GCUMs,"Tous les jours, le trottoir/ PC est devenu un vrai parking",2023-12-08 09:34:00,2,Montpellier
E8AC9D0E,43.63737033575133,3.8666422832107643,"Route de Mende, Montpellier",Gcum,Pas la première fois que les gens se garent ici sur la piste cyclable ,2023-12-08 09:33:00,2,Montpellier
B40B37C1,43.60354,3.87364,"Rue Étienne-Antoine, Montpellier",pas assez de places pour tous les vélos ,,2023-12-05 13:42:00,5,Montpellier
74F40B94,43.58658,3.88385,"Rue de la Restanque, Montpellier","des parkings partout, mais rien pour les velos",,2023-12-04 07:27:00,5,Montpellier
A12986D6,43.620916982087365,3.8975512819290175,"Avenue de la Pompignane, Montpellier",Comme d habitude véhicule garé sur piste cyclabl,Aménagement mal conçu. ,2023-12-02 09:04:00,2,Montpellier
19A2DD8F,43.65467004291044,3.9689333508818305,"Allée des Acacias, Vendargues",Stationnement gênant récurrent sur l’espace pi,,2023-12-01 16:42:00,2,Vendargues
4DBD9486,43.65528978499941,3.9684928153774224,"Passage Yvonne Barre, Vendargues",Parking gênant répétitif  sur espace piéton ,,2023-12-01 16:40:00,2,Vendargues
A93F5EFE,43.61056837585463,3.8718131203040693,"Place Giral, Montpellier",chaque jour d'école à 8h30,"sous les caméras de vidéo-surveillance et devant les panneaux ""vidéo-verbalisation"" ; impunité totale",2023-11-30 07:21:00,2,Montpellier
A0CCAE97,43.63766693141268,3.8663345575332646,"Route de Mende, Montpellier",« Parking Cyclable »,"Sur cette route en travaux, la gauche du trottoir réservé pour les cycles et la droite pour les piétons. Stationnement sur la PC sans impunité depuis des semaines. ",2023-11-29 09:07:00,2,Montpellier
F828AD22,43.61614382084236,3.8228730484843254,"Rue du Pilory, Montpellier",véhicules sur PC abords collège ,,2023-11-24 07:55:00,2,Montpellier
9A232908,43.61607415660897,3.8227503374218945,"Rue du Pilory, Montpellier",véhicules garés trottoir abords du collège ,,2023-11-23 07:51:00,2,Montpellier
B5B9DB60,43.60325286455078,3.8843821361660953,"Boulevard de Strasbourg , Montpellier",,,2023-11-23 07:42:00,2,Montpellier
A04C6FAA,43.62627441185156,3.884603364486679,"Avenue de la Justice de Castelnau, Montpellier",Gros gravier sur piste cyclable ,,2023-11-22 09:20:00,4,Montpellier
C2FDDEAB,43.63373788731484,3.9213681221008305,"Chemin du Clos de l'Armet, Castelnau-le-Lez",Professionnel du trottoir ,Taxis en plein milieu du trottoir ,2023-11-17 19:38:00,2,Castelnau-le-Lez
EF8A0165,43.627473,3.8428132,"Rue André Chamson, Montpellier",Vol de 5 vélos dans notre garage,,2023-11-17 19:33:00,10,Montpellier
81EBED6A,43.65163,3.95129,"Rue de la Marbrerie, Vendargues",,,2023-11-17 12:43:00,2,Vendargues
AFFC2572,43.645774868391236,3.862610310316086,"Route de Mende, Montpellier","poteau bas, délimitation piste absente",,2023-11-16 16:11:00,3,Montpellier
D7D356B8,43.64576637694477,3.8625885173678394,"Route de Mende, Montpellier",GCUM danger à pied vélo école ,,2023-11-16 16:09:00,2,Montpellier
5F53E773,43.603294444444444,3.884413888888889,"Boulevard de Strasbourg, Montpellier",Véhicule garé en feux de détresse sur anneau v?,"A côté du collège à l'heure de la sortie des classes, mettant en danger les enfants qui utilisent leur vélo pour rentrer chez eux.",2023-11-16 15:35:00,2,Montpellier
75088535,43.63998973280554,3.937334641817899,"Route de Nîmes, Le Crès",,,2023-11-16 13:11:00,2,Le Crès
7287BE00,43.62092909929554,3.8974421471357346,"Avenue de la Pompignane, Montpellier",,,2023-11-16 11:30:00,2,Montpellier
7DA37B07,43.63583541537467,3.9255382262884813,"Route de Nîmes, Castelnau-le-Lez",Bloque trottoir et piste cyclable ,,2023-11-14 12:37:00,2,Castelnau-le-Lez
C8D13591,43.598606034281666,3.865512795746326,"avenue de toulouse, Montpellier",est vite partie quand il a vu que je prenais  uneh,,2023-11-14 09:53:00,2,Montpellier
CB63247E,43.561486255932145,3.9962768554687504,"19 rue dessalle possel, Montpellier",Tentative de vol velo,,2023-11-13 15:18:00,10,Montpellier
59149E62,43.612278277777776,3.8604909444444444,"Avenue de l'École d'Agriculture Gabriel Buchet, Montpellier",Stationnement qui dépasse et bordure arrondie !,Aménagement dangereux car le cycliste est bloqué par la bordure arrondie.,2023-11-13 09:09:00,3,Montpellier
8D167AF9,43.61489203692961,3.8806314021348953,"Quai du Verdanson, Montpellier","dakle arrachée, gravier + plot sur PC",,2023-11-07 06:08:00,4,Montpellier
B188D4AE,43.61165225451404,3.8665652275085454,"Rue Saint-Louis, Montpellier",Vol de mon vélo attaché avec un antivol ,,2023-11-05 10:10:00,10,Montpellier
26CFF830,43.59750570155038,3.8456953916468755,"Rue du Pas du Loup, Montpellier",un habitué... triple comnbo,,2023-10-29 08:41:00,2,Montpellier
5D995C57,43.606884844646196,3.8659614762467602,"Rue du Faubourg Figuerolles, Montpellier",combo PC et passage piéton,,2023-10-28 19:39:00,2,Montpellier
A1982827,43.60737039819124,3.867113096951838,"Place Roger Salengro, Montpellier",no comment,,2023-10-28 12:40:00,2,Montpellier
7E5AF378,43.60686663326145,3.865922510070235,"Rue du Faubourg Figuerolles, Montpellier",sur la PC,,2023-10-26 16:16:00,2,Montpellier
0B90286C,43.60865530342531,3.849966712296009,"Avenue de la Liberté, Montpellier",qui a la priorité ?,,2023-10-26 05:59:00,6,Montpellier
9813F4E5,43.60486323198699,3.9197219163179398,"Rue Georges Méliès, Montpellier",,,2023-10-24 10:45:00,2,Montpellier
C07203EB,43.606876069969275,3.8659536900296896,"Rue du Faubourg Figuerolles, Montpellier",piste cyclable bloquée !!! ,,2023-10-23 06:55:00,2,Montpellier
3692DE5B,43.630067765025,3.900014720857143,"Avenue de la Galine, Castelnau-le-Lez",,,2023-10-21 15:16:00,2,Castelnau-le-Lez
F32AF677,43.659561453094675,3.9700964838266373,"Rue des Devèzes, Vendargues",,,2023-10-21 07:50:00,2,Vendargues
6D0177F5,43.65843209684959,3.9686289802193637,"Rue des Bergeries, Vendargues",,,2023-10-14 11:58:00,2,Vendargues
7BAC64D7,43.61937,3.86443,"Rue Hippolyte Rech, Montpellier",fuite borne incendie ,,2023-10-14 09:51:00,100,Montpellier
E68B044A,43.61359,3.82971,"Rue Marcellin Albert, Montpellier",,,2023-10-14 08:08:00,2,Montpellier
092DAE74,43.592054669188215,3.8509982757972288,"Rue de Bugarel, Montpellier",no comment,,2023-10-13 07:17:00,2,Montpellier
02289DD7,43.59263314754228,3.8441776014758893,"Avenue du XV de France, Montpellier","et 10 places libres dans la rue, menaces...",,2023-10-12 16:53:00,2,Montpellier
9F78F25F,43.58799484340411,3.872155621647835,"Avenue de Maurin, Montpellier",voitures sur la PC pour éviter les ralentisseurs ,,2023-10-12 15:08:00,3,Montpellier
A6C7372A,43.61609600254449,3.8227959349751472,"Rue du Pilory, Montpellier",toujours le même véhicule sur trottoir ,,2023-10-12 06:17:00,2,Montpellier
B550366C,43.65872535312256,3.97201158106327,"Rue de la Cadoule, Vendargues",,,2023-10-11 16:37:00,2,Vendargues
3EEC84C5,43.605869142461074,3.8624548169460664,"Rue du Faubourg Figuerolles, Montpellier",mise en danger des piétons et des cyclistes,,2023-10-09 16:12:00,2,Montpellier
9202BB56,43.59434,3.86078,"Avenue de Toulouse, Montpellier",,,2023-10-09 08:22:00,2,Montpellier
3B2538BA,43.60545157017011,3.8795094266098094,"Rue Pagézy, Montpellier",en Zone de rendontre,,2023-10-09 06:51:00,2,Montpellier
3839D36A,43.59769517559932,3.845843632861739,"Rue du Pas du Loup, Montpellier",stationnement au milieu du trottoir et PC,,2023-10-09 06:36:00,2,Montpellier
B52478D0,43.63023569669808,3.9005330577492714,"Avenue de la Galine, Castelnau-le-Lez",,,2023-10-08 17:19:00,2,Castelnau-le-Lez
DBE3D97D,43.57929911515034,3.859764151275158,"Avenue Étienne Méhul, Montpellier",,,2023-10-06 17:06:00,2,Montpellier
51B07502,43.59747995122759,3.8456837743341636,"Rue du Pas du Loup, Montpellier",sur la bande cyclable,,2023-10-06 16:48:00,2,Montpellier
56EBA36F,43.63522730306152,3.92453522421785,"Route de Nîmes, Castelnau-le-Lez",Pleine largeur ! On est bien laaaaa,,2023-10-05 08:29:00,2,Castelnau-le-Lez
923E6650,43.61605570892387,3.822569288313389,"Rue du Pilory, Montpellier","collégiens sur chaussée, voiture sur trottoir ",,2023-10-05 07:23:00,2,Montpellier
651093C9,43.598539748981935,3.87581080198288,"Avenue de Maurin, Montpellier",Camion en arrêt sur la piste cyclable et trottoir,"Un camion de livraison stationne sur la piste cyclable et trottoir (un autre vu il y a 2 semaines). Aujourd’hui on peut passer à droite, mais la dernière fois tout le monde doit descendre sur la chaussée pour passer, même les poussettes. Danger!",2023-10-05 07:07:00,2,Montpellier
2035993A,43.59854065026826,3.875804403305053,"Avenue de Maurin, Montpellier",Camion de livraison en arrêt sur la piste cyclabl,"Régulièrement, aujourd’hui ça fait 2 jours consécutivement, un camion de livraison stationne sur la piste cyclable et trottoir. Parfois on peut passer à gauche ou à droite, parfois tout le monde doit descendre sur la chaussée pour passer. Le traffic est très dense au matin, tout le monde râle (piéton, cycliste, voitures etc)",2023-10-05 07:03:00,2,Montpellier
6BD73B05,43.605909595682085,3.8768525506808653,"Place Alexandre Laissac, Montpellier",camion sur PC (place de livraison devant libre),,2023-10-05 06:34:00,3,Montpellier
2916DFD5,43.57931,3.85976,"Avenue Étienne Méhul, Montpellier",encore garer sur le trottoir,,2023-10-04 16:26:00,2,Montpellier
968C6A80,43.605960141130794,3.8768998682280658,"Place Alexandre Laissac, Montpellier","livreur sur PC, PM qui laisse faire",,2023-10-04 06:45:00,2,Montpellier
8787EE4A,43.606343916241705,3.8643121719360356,"Rue du Faubourg Figuerolles, Montpellier",scooter à fond sur le trottoir (+insultes),,2023-10-04 06:41:00,7,Montpellier
8C8A441D,43.60531144688424,3.875966459490883,"Rue Anatole France, Montpellier",circulation sur la pc,,2023-10-03 16:20:00,7,Montpellier
DEAAF8D9,43.60545973435636,3.8762517254083315,"Rue Anatole France, Montpellier",3 camions sur la piste !!!,,2023-10-03 06:48:00,2,Montpellier
2CE119A5,43.60543727761811,3.8762044025872298,"Rue Anatole France, Montpellier",au travers de la PC,,2023-10-02 16:09:00,2,Montpellier
345F3E48,43.6073662201727,3.867122532491947,"Place Roger Salengro, Montpellier",no comment...,,2023-10-02 06:44:00,2,Montpellier
3F3BEDF3,43.62224841229186,3.8550600429607584,"Avenue du Père Soulas, Montpellier",Tout le temps. Juste tout le temps.,,2023-09-29 11:48:00,7,Montpellier
725C0C0F,43.64005063334696,3.937391638755799,"Route de Nîmes, Le Crès",En travers de la piste cyclable OKLM,,2023-09-28 12:59:00,2,Le Crès
ED44A559,43.61604308682028,3.822558559477329,"Rue du Pilory, Montpellier",encore et toujours des véhicules sur le trottoir ,,2023-09-28 07:16:00,2,Montpellier
DC467F68,43.65887549783946,3.9724950492382045,"Rue du Stade, Vendargues",,,2023-09-27 16:40:00,2,Vendargues
3C9865B6,43.65882795609573,3.9718955755233765,"Rue de la Cadoule, Vendargues",,,2023-09-27 16:33:00,2,Vendargues
08DBA1C5,43.65855507546102,3.970848172903061,"Rue de la Cadoule, Vendargues",,,2023-09-27 16:32:00,2,Vendargues
AC6A39F7,43.68711751486608,3.8642099377779364,"Rue du Mas de Prades, Prades-le-Lez",Non réglementaire. Voie verte = route (R110-2),,2023-09-27 13:01:00,3,Prades-le-Lez
5063CF48,43.579311987845024,3.859754092991352,"Avenue Étienne Méhul, Montpellier",garer sur le trottoir ,"déjà que l'avenue Méhul est dans un état pitoyable, mais en plus le trottoir est constamment occupé par des voitures ",2023-09-26 07:54:00,2,Montpellier
FD28E4E9,43.605668763701644,3.8774778321684926,"Rue d'Alger, Montpellier",trottoir impraticable,,2023-09-26 06:49:00,2,Montpellier
D36DE759,43.6058590987338,3.8767961755300777,"Place Alexandre Laissac, Montpellier",no comment,,2023-09-26 06:48:00,2,Montpellier
D3E60306,43.60566487930695,3.8765766800969286,"Place Alexandre Laissac, Montpellier",sur la PC et devant PP,,2023-09-26 06:48:00,2,Montpellier
A80F6FDC,43.5980393290327,3.8460964922405343,"Rue du Pas du Loup, Montpellier",sur trottoir,,2023-09-26 06:36:00,2,Montpellier
E423E84B,43.59786062395694,3.845994512584695,"Rue du Pas du Loup, Montpellier",sur BC et devant passage piéton,,2023-09-25 17:33:00,2,Montpellier
81CBBC81,43.59789133892959,3.8459606226951197,"Rue du Pas du Loup, Montpellier",sur trottoir et PC,,2023-09-25 17:33:00,2,Montpellier
24A092EA,43.59831904025967,3.846384802744046,"Rue du Pas du Loup, Montpellier",trottoir et BC impraticable (+contresens),,2023-09-25 16:18:00,2,Montpellier
A8B451BA,43.65175840963027,3.897484891672845,"Avenue Georges Frêche, Clapiers",Passage cahotique et dangereux ,Contre le collège de clapiers et le passage piéton qui permet de traverser l'avenue de Vendargues. Il faut traverser la route sur un semblant d'aménagement pour arriver sur soit un haut trottoir à grimper soit un passage en terre dans les racines des arbres pour enfin arriver au passage piéton. Autant dire que c'est quasi impossible pour des enfants est difficile avec un vélo de ville. On se retrouve donc sur la route et c'est très dangereux.,2023-09-25 14:00:00,3,Clapiers
BB363927,43.658830139135794,3.972363620996475,"Rue de la Cadoule, Vendargues",,,2023-09-25 12:39:00,2,Vendargues
A6C18E4A,43.606865145327845,3.8659916763585316,"Rue du Faubourg Figuerolles, Montpellier",à demi sur la PC,,2023-09-24 18:11:00,2,Montpellier
76319143,43.65846120423601,3.970577605068683,"Rue de la Cadoule, Vendargues",plus de trottoir pour les piétons ,,2023-09-23 17:04:00,2,Vendargues
05B2D409,43.58149350551956,3.85470449924469,"Chemin du Grand Puits, Montpellier",100aine mégots autour des bancs et,,2023-09-23 12:59:00,4,Montpellier
33B61034,43.60545196553975,3.876203075051308,"Rue Anatole France, Montpellier",la police est votre amo,,2023-09-23 10:25:00,2,Montpellier
4F00A819,43.612794725991236,3.8594646990966646,"Avenue de l'École d'Agriculture Gabriel Buchet, Montpellier",Zone extrêmement dangereuse ,"DANGER ‼️ Grosse frayeur en vélo à l’instant j’ai failli me faire renverser par une camionnette garée av de l’agriculture qui a reculé pour sortir de sa place de parking, j’ai pilé à 10cm du véhicule ",2023-09-21 07:06:00,3,Montpellier
5F124A05,43.5826289223752,3.857661634683609,"Avenue des Bergamotes, Montpellier",écoulement des pluviales au top a Montpellier ,,2023-09-20 16:29:00,4,Montpellier
C6D5F36E,43.57634925244399,3.928942680358887,", Lattes",manque liaison de 400m entre 2 pistes cyclables,"L'avenue Georges Frêche est équipée de 2 belles pistes cyclables, une de chaque coté de la 4 voies.
La route de Mauguio est équipée de même de belles pistes cyclables.
Malheureusement, le lien entre les deux n'a pas été réalisé, il manque environ 400 mètres seulement.
Cet endroit est très dangereux en vélo (je l'emprunte tous les jours) car les voitures roulent vite et il y a 2 endroits avec des terres pleins en béton qui poussent les voitures à serrer à droite. 
Le bas coté est large (voir photo). Il y a la place pour une piste cyclable de liaison.
Les VTT roulent sur le bas coté, j'ai déjà crevé 2 fois en le faisant avec mon vélo de route.
J'ai écris deux fois à la mairie de Lattes, sans réponses.",2023-09-20 14:25:00,8,Lattes
78A59A2B,43.53776160894276,3.9031612873077397,"D 58, Palavas-les-Flots",barrière gêne le passage vélo sur la passerelle,"La passerelle aux Cabanes de Palavas permet aux cyclistes de passer de la voie cyclable le long du Lez à la voie cyclable vers Villeneuve les Maguelonne.
Malheureusement, une barrière est érigée de chaque coté et les cyclistes ne peuvent passer qu'en portant leur vélo, ou grâce à des contorsions diffciles.
C'est un lieu assez passant (j'y passe tous les jours) surtout l'été en période estival.
L'aménagement serait peu couteux. J'ai écrit 2 fois à la mairie mais n'ai pas eu de retour.",2023-09-20 14:18:00,3,Palavas-les-Flots
F094CED9,43.60955510438507,3.881637818526321,"Avenue Frédéric Mistral, Montpellier",en infraction chaque jour,le stationnement en aire piétonne est strictement interdit par le code de la route R417-10,2023-09-20 06:03:00,7,Montpellier
2F3C8944,43.614624,3.8519389444444445,"Rue de Las Sorbes, Montpellier",Circulation très dangereuse des vélos en montée,Vélos en montée obligés de zigzaguer entre les véhicules souvent à l'arrêt en raison des embouteillages. Il y a vraiment la place de mettre une bande sécurisée sur cette large rue de las sorbes. ,2023-09-19 16:49:00,8,Montpellier
D0201575,43.61242601678723,3.8455484434962273,"Avenue de Lodève, Montpellier",squatté par la même moto tous les jours,,2023-09-19 06:50:00,7,Montpellier
EFC07F9D,43.61246679833441,3.845210485160351,"Avenue de Lodève, Montpellier",voiture garée sur le trottoir tous les jours,,2023-09-19 06:47:00,7,Montpellier
2F47BE41,43.614663377833054,3.8295540958642964,"Route de Lodève, Montpellier","garé sur la rue à contre sens, place dispo!!!!",,2023-09-19 05:09:00,2,Montpellier
2ED7938B,43.616960124295645,3.8258744403719898,"Rond-Point de Stalingrad, Montpellier",pôle emploi Cévennes ,,2023-09-18 09:00:00,5,Montpellier
37268D11,43.612444708333115,3.828519433736801,"Rue Gilodès, Montpellier","stationnement sauvage, un fléau à celleneuve ",,2023-09-17 07:15:00,2,Montpellier
75B36088,43.61271,3.82554,"Rue André Le Nôtre, Montpellier",trottoir squatté en permanence ,,2023-09-17 07:12:00,2,Montpellier
00102D42,43.61351327250487,3.8353677839040756,"Rue des Escarceliers, Montpellier",parking gratuit dispo à 5m? je préfère le trott,,2023-09-16 07:25:06,2,Montpellier
7A19BBA5,43.60738333530081,3.869436090820502,"Rue de la Palissade, Montpellier",montre l'exemple (avec insultes),,2023-09-15 16:15:00,2,Montpellier
0B8A2CEB,43.62648260308657,3.8700038194656377,"Route de Mende, Montpellier",pratique les pistes cyclables pour se garer,,2023-09-15 15:26:00,2,Montpellier
43A57E7B,43.61234858032096,3.8454418256878857,"Avenue de Lodève, Montpellier","livraison 0 émission, 100% incivile",,2023-09-15 07:39:00,2,Montpellier
219A3F85,43.62896746121167,3.8613439723849297,"Avenue Émile Diacon, Montpellier",GCUM cycliste vs piétons,,2023-09-14 08:43:00,2,Montpellier
81A10BFB,43.60478699967473,3.879014461887521,"Rue Pagézy, Montpellier",sur trottoir,,2023-09-13 11:33:00,2,Montpellier
7985903F,43.60520263454882,3.879288161546897,"Rue Pagézy, Montpellier",sur trottoir,,2023-09-13 11:12:00,2,Montpellier
6D9673C0,43.605490081286646,3.8795133690985444,"Rue Pagézy, Montpellier",en zone de rencontre,,2023-09-13 11:12:00,2,Montpellier
3A052CCB,43.60543569957672,3.879465110337477,"Rue Pagézy, Montpellier",@GROUPENICOLLIN stationné en zone de rencontre,,2023-09-13 07:00:00,2,Montpellier
7D1F714E,43.6095504757844,3.881651159968911,"Avenue Frédéric Mistral, Montpellier",chaque jour en infraction,R417-10 : stationnement interdit en aire piétonne,2023-09-13 06:00:00,2,Montpellier
13EA3F9A,43.59103908359167,3.8455459300260357,"Rue de Bugarel, Montpellier",déboule à contresens via la PC + menaces,,2023-09-12 16:50:00,2,Montpellier
4108BE1F,43.57925393925661,3.859757445752621,"Avenue Étienne Méhul, Montpellier",,,2023-09-12 16:21:00,2,Montpellier
C5360704,43.57912909816973,3.8597732037305827,"avenue Méhul , Montpellier",garer sur le pseudo trottoir !!,,2023-09-12 16:21:00,2,Montpellier
CF86FCED,43.605618266551204,3.879588438282414,"Rue Pagézy, Montpellier",zone de rencontre transformée en parking,,2023-09-12 16:02:00,2,Montpellier
A1BFC667,43.60546677484555,3.8794865586757425,"Rue Pagézy, Montpellier",@GROUPENICOLLIN sur zone de rencontre,,2023-09-12 06:56:00,2,Montpellier
CD8DDDDB,43.60566415098293,3.8736516097250915,"Cours Gambetta, Montpellier",circulation 4RM sur la PC,,2023-09-12 06:53:00,2,Montpellier
391D33B2,43.60954858222273,3.881641840501354,"Avenue Frédéric Mistral, Montpellier","les règles, @policenat34, c'est pour les autres ",en aire piétonne il est interdit de stationner - R417-10,2023-09-12 06:41:00,7,Montpellier
F241DCAE,43.63638283780006,3.8746064901351924,"Rue Antoine-Laurent Jussieu, Montpellier",pratique ces passages piétons pour se garer 5mn,,2023-09-12 06:36:00,2,Montpellier
06A58BBF,43.636430639962576,3.8749122619628906,"Rue Antoine-Laurent Jussieu, Montpellier","trottoir pour voiture, devant une école primaire",,2023-09-12 06:35:00,2,Montpellier
7DC93A42,43.63647892738761,3.874608166515827,"Rue Antoine-Laurent Jussieu, Montpellier","aléhop, j'en ai juste pour 5min",,2023-09-12 06:32:00,7,Montpellier
9DD48644,43.59028459457204,3.852192852432759,"Rue Jacques Fouroux, Montpellier",sur trottoir,,2023-09-11 17:16:00,2,Montpellier
9C099774,43.605490081286646,3.8794918745169498,"Rue Pagézy, Montpellier",@GROUPENICOLLIN toujours en mode WTF,,2023-09-11 06:49:00,2,Montpellier
C9B479F3,43.60954850132283,3.8816377243845066,"Avenue Frédéric Mistral, Montpellier",le R417-10 ? pas devant @policenat34 apparemment,en aire piétonne le stationnement est interdit,2023-09-11 06:49:00,7,Montpellier
D5D9999A,43.60739734298593,3.870047969093312,"cours Gambetta, Montpellier",sur la PC,,2023-09-10 16:52:00,2,Montpellier
6BB9A2B3,43.60542875617043,3.8761798868896773,"Rue Anatole France, Montpellier","Scooter stationé sur la PC, récurrent",,2023-09-10 16:49:00,2,Montpellier
B2A9D97D,43.60587468480379,3.8796928923556044,"Rue Pagézy, Montpellier",parking gratuit en ZdR !,,2023-09-10 16:48:00,2,Montpellier
8989635D,43.607373260438756,3.8669729312294097,"rue du faubourg de Figuerolles, Montpellier",au milieu de la piste cyclable,,2023-09-10 12:25:00,2,Montpellier
A9DE767C,43.60691180565949,3.866019127724352,"rue du faubourg de Figuerolles, Montpellier",scooters ou motos sur PC,,2023-09-10 12:23:00,7,Montpellier
5F988D83,43.5784414960269,3.8598455607388487,"avenue Méhul, Montpellier",zone piétonne impraticable,,2023-09-10 06:46:00,2,Montpellier
F9CC943F,43.58635245365187,3.8553255366296084,"Chemin de Poutignon, Montpellier",sur trottoir,,2023-09-10 06:42:00,2,Montpellier
8E894463,43.58818256305199,3.8535664415627577,"Avenue du Mondial de Rugby 2007, Montpellier",sur trottoir,,2023-09-10 06:41:00,2,Montpellier
B71D648F,43.592440946186386,3.8428688149867845,"Rue du Pas du Loup, Montpellier",sur trottoir,,2023-09-10 06:36:00,2,Montpellier
274F823F,43.61445583618059,3.864980041980744,"avenue d’Assas, Montpellier",La piste cyclable à largeur variable,"L’avenue d’Assas est parsemée de voitures garées débordant sur la piste cyclable.

De base, ce type d’aménagements “en sandwich” est très stressant.
On est entre la circulation de la route et les voitures garées. Comme elles peuvent sortir à tout moment de leur place, il faut être sur le qui-vive sur toute l’avenue.

Quand les cyclistes tombent sur une voiture débordante, comme mon fils de 5 ans sur la photo, ils sont forcés d’aller sur la route. On perd tout l’intérêt de la piste cyclable.",2023-09-08 15:53:00,2,Montpellier
896939F6,43.60608044742227,3.898791596763216,"Place Christophe Colomb, Montpellier",Un véhicule percute un Velo avec refus de priorit,"Le vélo était en circulation dans le rond point, la voiture est entrée dans le rond point en renversant le cycliste. Il y a eu un constat.
",2023-09-07 20:15:00,9,Montpellier
5225DB62,43.60544662447776,3.876199716789999,"Rue Anatole France, Montpellier",réquisition du trottoir et de la PC ,,2023-09-07 16:02:00,2,Montpellier
D88CEA08,43.60522598963568,3.8780633941753355,"Rue Durand, Montpellier",stationnement sur trottoir,,2023-09-07 15:59:00,2,Montpellier
1DC4EBB0,43.60554451149057,3.8795653954732727,"Rue Pagézy, Montpellier",Zone de rencontre transformée en parking,,2023-09-07 15:58:00,2,Montpellier
89C9D25C,43.60905124793291,3.890039920806885,"Boulevard d'Antigone, Montpellier",Stationnement sur piste cyclable ,,2023-09-07 10:55:00,2,Montpellier
D7386C23,43.60545123721313,3.8794908765703444,"Rue Pagézy, Montpellier",comme d'hab',,2023-09-07 06:48:00,2,Montpellier
AF11CD69,43.605323051592656,3.8792172912508254,"Rue de la République, Montpellier",Nicollin sur le trottoir,,2023-09-07 06:48:00,2,Montpellier
C28FD7B8,43.607381805852185,3.8700059029931086,"cours Gambetta, Montpellier",stationné sur la PC,,2023-09-07 06:36:00,2,Montpellier
91677ABA,43.60198551658271,3.8567698001861577,"Rue des Chasseurs, Montpellier","camion sur la BC, chauffeur imbuvable",,2023-09-07 05:48:00,2,Montpellier
BAA05725,43.59936333257838,3.8427686691284184,"Route de Lavérune, Montpellier",sur BC et trottoir,,2023-09-06 16:19:00,2,Montpellier
63111ED0,43.60525240371914,3.875861763954163,"Rue Anatole France, Montpellier",circulation de voitures sur la piste cyclable,,2023-09-06 16:07:00,7,Montpellier
55A299DF,43.6059406707061,3.879796648398042,"Rue Pagézy, Montpellier",@GROUPENICOLLIN stationné en zone de rencontre,,2023-09-06 06:33:00,2,Montpellier
749BE568,43.60543958398622,3.8794747833162555,"rue Pagezy, Montpellier",@GROUPENICOLLIN stationné en zone de rencontre,,2023-09-06 06:32:00,2,Montpellier
D605916B,43.60759247934519,3.8698529452085495,"Cours Gambetta , Montpellier",DANGER : AMÉNAGEMENT DANGEREUX ,,2023-09-05 15:59:00,3,Montpellier
9A1FFA25,43.60543181516699,3.8794533256441364,"rue Pagezy, Montpellier",cortège de camions en ZdR,,2023-09-05 07:03:00,2,Montpellier
41082781,43.6054046,3.8761476,"Rue Anatole France, Montpellier",cortège de camions sur la PC !!!!,,2023-09-05 07:02:00,2,Montpellier
70F5F6F1,43.627056888872055,3.863389349905924,"Rue de la Jalade, Montpellier",Tous les week-ends... Et il y a des places libres.,,2023-09-02 16:12:00,7,Montpellier
2F204408,43.659447496698725,3.9746149297165574,"Ancien Chemin de Meyrargues, Vendargues",Parking vélo non adapté et non protégé 2RM,,2023-09-02 09:42:00,2,Vendargues
60942E00,43.615576067125225,3.881096765398979,"Rue Proudhon, Montpellier",épave bloquant arceau depuis > 2 mois.,,2023-09-01 06:30:00,2,Montpellier
BEF401F9,43.60793565361466,3.869030154819209,"Cours Gambetta, Montpellier",Qu'est-ce donc que ce panneau ? Mystère !,,2023-09-01 06:16:00,7,Montpellier
2E2A429B,43.60409264996277,3.8873768225312233,"de barcelone, Montpellier",manque un miroir routier car croisement dangereux,,2023-08-31 17:18:00,8,Montpellier
81A3BDB7,43.60550561890902,3.879518385933532,"Rue Pagézy, Montpellier",garé sur zone de rencontre,,2023-08-31 07:04:00,2,Montpellier
340ABE6E,43.607280765843235,3.8667364220572824,"boulevard de Figuerolles, Montpellier",déménagement au milieu de la piste,,2023-08-31 06:52:00,2,Montpellier
30A20839,43.60904969428615,3.852825846272503,"Rue du professeur Forgues, Montpellier",Pas encore inaugurée et déjà encombrée.,,2023-08-30 17:01:00,2,Montpellier
B3603495,43.60736316127454,3.870035585086012,"cours Gambetta, Montpellier",stationnement au milieu du trottoir et PC,,2023-08-30 16:03:00,2,Montpellier
6D87D932,43.605443516938685,3.8762332631747487,"rue anatole France, Montpellier","scooter au milieu de la piste, récurrent",,2023-08-30 16:00:00,2,Montpellier
62C1411F,43.60549401423584,3.87635770532973,"Rue Anatole France, Montpellier",au milieu de la piste,,2023-08-30 06:42:00,2,Montpellier
30616578,43.60739268185808,3.869231342006039,"Rue de la Palissade, Montpellier","sur le trottoir, empêche sortie de véhicule",,2023-08-29 16:22:00,2,Montpellier
90A3E6AE,43.60543963252947,3.8794743884108267,"Rue Pagézy, Montpellier","@GROUPENICOLLIN stationné en ZdR, as susual",,2023-08-29 06:52:00,2,Montpellier
EDCB0692,43.604631864193095,3.884784802794456,"Rue de Barcelone, Montpellier",,,2023-08-29 06:42:00,2,Montpellier
69CC3DF5,43.60736238442936,3.867028860257418,"rue du faubourg de Figuerolles, Montpellier",manoeuvre sur PC,,2023-08-29 06:40:00,2,Montpellier
E80EC80D,43.602073309204734,3.856596639003245,"Rue des Chasseurs, Montpellier",camion sur la BC malgré l'espace,,2023-08-29 06:35:00,2,Montpellier
9383A041,43.605221328339596,3.8758134892450933,"Rue Anatole France, Montpellier",circulation sur la PC !,,2023-08-28 16:08:00,2,Montpellier
B1989628,43.60525318059158,3.875837380362377,"Rue Anatole France, Montpellier",circulation sur la PC !,,2023-08-28 16:07:00,2,Montpellier
B49C0B37,43.605451285756416,3.8794905166160776,"Rue Pagézy, Montpellier",@GROUPENICOLLIN stationné en ZdR,,2023-08-28 06:55:00,2,Montpellier
985B466A,43.60780752182973,3.8692575560301905,"cours Gambetta, Montpellier",stationnement sur la voie pour les cyclistes,,2023-08-28 06:49:00,2,Montpellier
D42711A1,43.6082637260668,3.854037635028362,"Fontcarrade, Montpellier",piste cyclable qui s'arrête brusquement devant u,,2023-08-28 05:50:00,3,Montpellier
C3B42DF3,43.6269771560549,3.863448033327806,"Rue de la Jalade, Montpellier",Tous les week-ends,,2023-08-26 17:41:00,7,Montpellier
C001747E,43.6088325,3.8829397,"Allée Jules Milhau, Montpellier",Joint saillant en travers de la voie bétonnée ,Risque de chute pour piétons et cyclistes ,2023-08-26 09:53:00,4,Montpellier
8389A75A,43.695155421022015,3.8085114955902104," Rue de Coulondres, Saint-Gély-du-Fesc",Véhicule stationne sur piste cyclable.,,2023-08-25 07:52:00,2,Saint-Gély-du-Fesc
DAE2EC10,43.69489131124875,3.8080340623855595,"Rue de Coulondre, Saint-Gély-du-Fesc",Véhicule stationné sur piste cyclable,,2023-08-25 07:52:00,2,Saint-Gély-du-Fesc
0A2231AF,43.61630596585363,3.880394697189331,"Rue de la Cavalerie, Montpellier",garé sur le passage piéton,,2023-08-24 19:32:00,2,Montpellier
10E97783,43.607800772981186,3.8693319261074066,"Cours Gambetta, Montpellier",Nouvelle piste cyclable Gambetta très mal faite,,2023-08-23 08:02:00,3,Montpellier
91165082,43.63077342155282,3.902529027385722,"Avenue de la Galine, Castelnau-le-Lez",Voiture garée sur bande cyclable ,GCUM,2023-08-21 16:28:00,2,Castelnau-le-Lez
E15255A9,43.66050310067739,3.947676917596614,"Route de Jacou, Vendargues",choc frontal vs cycliste yeux sur son smartphone,Choc frontal suivie d'une chute douloureuse,2023-08-21 15:44:00,9,Vendargues
6BF36AA6,43.605918966769416,3.873125053446272,"Cours Gambetta, Montpellier","la @PMMontpellier dans la bande cyclable, bravo",,2023-08-21 12:01:00,7,Montpellier
ACCC1255,43.615013648260536,3.8809432089328766,"Quai du Verdanson, Montpellier",véhicule sur la piste. insulte scooter sur le tro,,2023-08-17 13:21:00,2,Montpellier
719D1A04,43.53008,3.86598,"Chemin de la Capouillère, Villeneuve-lès-Maguelone",Bambous qui défoncent le sol de la piste cyclable,,2023-08-14 08:57:00,4,Villeneuve-lès-Maguelone
116718E7,43.645656849999995,3.875573133761418,"501 avenue du Pirée, Montpellier",revêtements très abîmé ,Dangereux pour les cyclistes ,2023-08-11 07:08:00,4,Montpellier
70C823D1,43.60004025546621,3.8955223560333256,"546 avenue du Pirée, Montpellier",Pas de véritable voie cyclable ,Contrairement aux plans de la ville pas de piste cyclable ici.,2023-08-11 07:07:00,3,Montpellier
9745A86C,43.60421088420366,3.8962881267070766,"Place Jean Bène, Montpellier","revêtements déformé, dalle béton dangereuses ",,2023-08-11 06:49:00,4,Montpellier
C76DA3A3,43.61489845151537,3.7992553206024886,"5 Allée de l'Europe, Juvignac",Chute en trottinette sur la piste cyclable de nuit,"Par manque d'éclairage, le conducteur de la trottinette n'a pas vu un objet sur la piste malgré la présence de son phare (fracture du nez)",2023-08-10 10:07:00,9,Juvignac
B7A6CE5D,43.58262430789014,3.9257441461086273,"Avenue Georges Frêche, Boirargues",accumulation de végétation et épines sur la pis,,2023-08-09 07:17:00,4,Boirargues
D5F07B61,43.60521783235246,3.8757817043859086,"Rue Anatole France, Montpellier",camion stationé sur la PC,,2023-08-07 13:18:00,2,Montpellier
562418F4,43.60723420288144,3.86662507622273,"boulevard de Figuerolles, Montpellier",voiture et scooter sur PC et trottoir,,2023-08-07 13:13:00,2,Montpellier
CBEEF9B5,43.59179234899977,3.8448883988883784,"avenue du XV de France, Montpellier","""j'attends ma femme"" (5 places à proximité)",,2023-08-07 09:26:00,2,Montpellier
C78D16F1,43.59218068251976,3.844394449155742,"Rue André Puig-Aubert, Montpellier","""garé"" au milieu du trottoir",,2023-08-05 15:30:00,2,Montpellier
25A6B292,43.59139973910307,3.845087028241144,"Avenue du XV de France, Montpellier",au milieu de la PC !!!,,2023-08-05 15:30:00,2,Montpellier
1CE0A378,43.591508527848205,3.8489437448143264,"Rue de Bugarel, Montpellier",Sur la PC  (et à contresens),,2023-08-05 15:28:00,2,Montpellier
B813BF8A,43.59016419598448,3.852064899151829,"Avenue Jean Prat, Montpellier",à contresens dans le virage,,2023-08-05 15:26:00,2,Montpellier
4DB2FD89,43.59229646332985,3.8444638354994525,"Avenue du XV de France, Montpellier",au milieu de la PC,,2023-08-05 08:19:00,2,Montpellier
031B6770,43.59719168924024,3.845542019826911,"Rue Félix Éboué, Montpellier",en travers du trottoir,,2023-08-03 16:10:00,2,Montpellier
70E512E8,43.60675390647373,3.8656801190809147,"Rue du Faubourg Figuerolles, Montpellier",scooter au milieu de la piste,,2023-08-03 15:58:00,2,Montpellier
0F3A0EF2,43.60733723368341,3.8669088429272644,"Place Roger Salengro, Montpellier",voiture sur la PC,,2023-08-03 15:58:00,2,Montpellier
ACF793B0,43.60543885565945,3.8794827276317005,"Rue Pagézy, Montpellier","l'habitué du soir, sur ""sa"" place en ZDR",,2023-08-03 15:52:00,2,Montpellier
5ED0E57C,43.532664422332715,3.926492147147656,"Rond-Point du Brocardi, Palavas-les-Flots",montrant l'exemple @Gendarmerie_034 ‍♂️,,2023-08-03 12:52:24,2,Palavas-les-Flots
10AEA69A,43.607610589746976,3.8824979742517667,"Rue Campan, Montpellier",garé sur la passage piéton,,2023-08-03 11:34:00,2,Montpellier
36B0894B,43.59831442697742,3.8463681854074983,"Rue du Pas du Loup, Montpellier",trottoirs condamnés,,2023-08-03 06:56:00,2,Montpellier
D0CA1AC3,43.598211866331376,3.846253380405714,"Rue du Pas du Loup, Montpellier",à contresens et sur le BC,,2023-08-02 16:17:00,2,Montpellier
E61FA182,43.605486245423634,3.8795049226832976,"Rue Pagézy, Montpellier",fête du slip en ZDR,,2023-08-02 16:01:00,2,Montpellier
DD6E2C8D,43.605473815333916,3.8795149470155414,"Rue Pagézy, Montpellier",piétons relégués face à la circulation,,2023-08-02 11:43:00,2,Montpellier
0A6FFF27,43.60583972536228,3.8797356974497137,"Rue Pagézy, Montpellier",stationnement en Zdr,,2023-08-02 11:23:00,2,Montpellier
94F8D05D,43.605478476610465,3.879499424707982,"Rue Pagézy, Montpellier",comme d'hab...,,2023-08-02 06:58:00,2,Montpellier
DA13A76E,43.60516539260998,3.8758222436755534,"Rue du Grand Saint-Jean, Montpellier",au beau milieu du passage piéton,,2023-08-02 06:56:00,2,Montpellier
E10A75D6,43.59780239899735,3.8458913026020944,"Rue du Pas du Loup, Montpellier",sur trottoir et PC,,2023-08-01 16:33:00,2,Montpellier
5B591427,43.607137775230626,3.866461291909218,"Rue du Faubourg Figuerolles, Montpellier",regie des eaux,,2023-08-01 06:21:06,2,Montpellier
1BE85EFF,43.60545827770333,3.8762426499626566,"Rue Anatole France, Montpellier",sur la PC,,2023-07-31 18:23:00,2,Montpellier
E00EB9A7,43.60517257879368,3.8756266518658045,"Rue du Grand Saint-Jean, Montpellier",circulation à contresens pour rejoindre A. France,,2023-07-31 16:04:00,7,Montpellier
1DA8B813,43.60069094891107,3.8972849026322365,"Avenue Marie de Montpellier, Montpellier",3 voies + double sens tram. synchron des feux,,2023-07-31 14:51:00,3,Montpellier
644AD1FF,43.59993463851564,3.8958442211151123,"Avenue du Professeur Étienne Antonelli, Montpellier",lenteur du feu piétons pour traverser ,,2023-07-31 14:10:00,2,Montpellier
E78F0177,43.59131426209393,3.847406297900307,"Rue de Bugarel, Montpellier",sur le trottoir,,2023-07-30 10:01:00,2,Montpellier
CD1CA63F,43.598295779589456,3.8463709652205584,"Rue du Pas du Loup, Montpellier",sur le trottoir,,2023-07-30 09:41:00,2,Montpellier
57E17768,43.59742090037634,3.8456815481185918,"Rue du Pas du Loup, Montpellier",à contresesn sur la BC,,2023-07-30 09:41:00,2,Montpellier
B363F7CE,43.67536657266129,3.9803579449653625,"Rue du Vieux Puits, Castries",pince roue...,,2023-07-29 16:56:18,3,Castries
032A63EC,43.591977871334855,3.84472668170929,"Avenue du XV de France, Montpellier","Mon SUVay, ma libertay",,2023-07-29 09:03:00,2,Montpellier
432F328F,43.59122101430917,3.8451961576720355,"Avenue du XV de France, Montpellier",sur la PC (alors qu'il y avait une place à côt?,,2023-07-29 07:57:00,2,Montpellier
F6E9E56F,43.61099408144296,3.8656506836196063,"Rue Marioge, Montpellier",à contresens et sur la trottoir,,2023-07-28 19:55:00,2,Montpellier
B98D6356,43.60735539270376,3.8671072124998322,"Place Roger Salengro, Montpellier",PM alertée une heure plus tôt...,,2023-07-28 17:48:00,2,Montpellier
E2C6277A,43.61463255005396,3.8663345575332646,"Rue de la Portalière des Masques, Montpellier",sur la PC,,2023-07-28 17:42:00,2,Montpellier
17E0DE6B,43.60735461585847,3.8671419918318866,"Place Roger Salengro, Montpellier",La totale !!!!! ,,2023-07-28 17:03:00,2,Montpellier
6D715BCD,43.59871955277398,3.846655279376137,"Rue du Pas du Loup, Montpellier",garé sur la BC,,2023-07-28 16:57:00,2,Montpellier
C79F1392,43.591197702340374,3.8464943468352435,"Rue de Bugarel, Montpellier",roule puis se gare sur le trottoir,,2023-07-28 11:43:00,2,Montpellier
8018059B,43.59746829645655,3.845684319712746,"Rue du Pas du Loup, Montpellier",strationné sur la BC et dans le carrefour,,2023-07-27 16:32:00,2,Montpellier
1935691C,43.69546604244373,3.809207528829575,"Rue de Coulondres, Saint-Gély-du-Fesc",Véhicule stationné sur piste cyclable,,2023-07-26 16:27:00,2,Saint-Gély-du-Fesc
F5888A51,43.612258156734946,3.8607984781265263,"Avenue de l'École d'Agriculture Gabriel Buchet, Montpellier",Véhicule garé en travers de la piste cyclable,"Véhicule garé en travers de la piste cyclable, donc obligé de passer par-dessus le boudin de séparation avec les véhicules qui arrivent par derrière : DANGER !",2023-07-26 09:50:00,2,Montpellier
A8B79AF7,43.60554839589302,3.87954452631675,"Rue Pagézy, Montpellier",en zone de rencontre,,2023-07-25 16:16:00,2,Montpellier
11637AB2,43.60608832539368,3.8798824846526263,"Rue Pagézy, Montpellier",stationnement en Zdr,,2023-07-25 16:15:00,2,Montpellier
274F36DF,43.60546682338879,3.8794586956282733,"Rue Pagézy, Montpellier",en zone de rencontre,,2023-07-25 06:50:00,2,Montpellier
343BC381,43.60751154080174,3.8697638064513744,"Rue de la Raffinerie, Montpellier",panneaux à l'entrée/sortie de la PC !,,2023-07-25 06:41:00,2,Montpellier
F52C6CAB,43.59926271612435,3.8469677120338024,"Rue Hébert, Montpellier",devant l'entrée de la PC,,2023-07-24 16:25:00,2,Montpellier
54AFD04B,43.60566492785003,3.879614263751137,"Rue Pagézy, Montpellier",et pile sous le panneau!,,2023-07-24 06:40:00,2,Montpellier
A1904CDE,43.592511366276405,3.842969164252281,"Rue du Pas du Loup, Montpellier",sur le trottoir ,,2023-07-23 09:59:00,2,Montpellier
372025DE,43.59134145933731,3.847854575239396,"Rue de Bugarel, Montpellier",PC transformée en parking ,,2023-07-23 09:57:00,2,Montpellier
818F76FD,43.60566,3.87661,"Place Alexandre Laissac, Montpellier",@GROUPENICOLLIN sur PC,,2023-07-22 19:59:00,2,Montpellier
7F255267,43.54050434947115,3.9010684937238698,"route des plages, Lattes",la voiture accélère je n'ai rien à faire là ,,2023-07-22 16:12:00,7,Lattes
60C080D0,43.58976322183477,3.8528537768534314,"Rue Jacques Fouroux, Montpellier",gare sur le passage piéton ,,2023-07-22 15:21:00,2,Montpellier
4B4095B8,43.622782427677116,3.8545499369502063,"Avenue du Père Soulas, Montpellier",les travaux sur 400ml ont dénoncé la piste cycla,,2023-07-22 11:46:59,3,Montpellier
1E8FE9A7,43.61206,3.87011,"pitot, Montpellier","piste cyclable servant de trottoir, pas de place p",,2023-07-22 11:42:00,2,Montpellier
1DFEB3B8,43.61632,3.88384,"Rue du Marché aux Bestiaux, Montpellier",Vol de mon VTT électrique Decathlon e-st 500. VTT,,2023-07-22 08:00:00,10,Montpellier
F4AC3E90,43.604310424144145,3.8875441253185277,"Rue Marie Muller, Montpellier",l'installation d'un velobox est-il envisageable ,,2023-07-20 11:56:00,5,Montpellier
FD7A0855,43.62491771345567,3.871239311993122,"Route de Mende, Montpellier","Ben quoi, ça passe encore non? ",,2023-07-18 07:51:00,2,Montpellier
A42D4EC6,43.62492450897019,3.871231935918331,"Route de Mende, Montpellier",qd mm pratiques ces bordures biseautées,,2023-07-18 07:51:00,2,Montpellier
841EDC95,43.53312211970556,3.8646715829142546,"Boulevard du Chapitre, Villeneuve-lès-Maguelone",se colle au travers la piste ,pour ouvrir le portail au lieu de rester sur la route. ,2023-07-18 06:38:00,2,Villeneuve-lès-Maguelone
E925FFD4,43.57865610842779,3.859854790260596,"Avenue Étienne Méhul, Montpellier",et tant pis pour les piétons,,2023-07-18 06:11:00,2,Montpellier
863757D7,43.58978575728702,3.8541847855901383,"Rue Albert Ferrasse, Montpellier",circulation à contresens depuis carrefour,plusieurs sens interdits en amont,2023-07-17 16:19:00,7,Montpellier
BC07725D,43.59232288308997,3.8426725067272165,"Rue du Pas du Loup, Montpellier","@enedis_LR , encore sur le trottoir, régulier",,2023-07-17 16:14:00,2,Montpellier
AB4BCDFE,43.592253725477256,3.8424628954717033,"Rue du Pas du Loup, Montpellier",profite de l'ombre... sur le trottoir,,2023-07-17 09:53:00,2,Montpellier
E6FB615A,43.57333341797123,3.8596719480540203,"Rue Georges Onslow, Montpellier",Piste cyclable envahie !,,2023-07-17 06:06:00,2,Montpellier
D1DF2927,43.576866126438304,3.8600420915262927,"Avenue Étienne Méhul, Montpellier",espace piéton squatté en permanence,,2023-07-17 06:05:00,2,Montpellier
B59E1139,43.59256143732674,3.8442980648520835,"Avenue du XV de France, Montpellier",malgré les places libres des deux côtés,,2023-07-15 15:08:00,2,Montpellier
F4F367E7,43.592203994107805,3.8444107272329884,"Avenue du XV de France, Montpellier",profite de l'ombre sur le trottoir,,2023-07-15 14:11:00,2,Montpellier
AF83595D,43.59241554634443,3.842892467985504,"Rue du Pas du Loup, Montpellier",SUV sur trottoir,,2023-07-15 09:59:00,2,Montpellier
9AF745FA,43.57926389738666,3.8597416859456417,"Avenue Étienne Méhul, Montpellier",trottoir condamné,,2023-07-15 06:09:00,2,Montpellier
D1F2430A,43.57874393505664,3.859838661340836,"Avenue Étienne Méhul, Montpellier",trottoir condamné,,2023-07-15 06:09:00,2,Montpellier
663B5660,43.57765755683132,3.8600157273739915,"Avenue Étienne Méhul, Montpellier",trottoir impraticable,,2023-07-15 06:09:00,2,Montpellier
FBB466D8,43.57336528710288,3.8597551751145835,"Rue Georges Onslow, Montpellier",Piste cyclable envahie des puis 2 semaines !,,2023-07-14 05:54:00,2,Montpellier
5F1E2447,43.60283236048339,3.855149745005031,"Route de Lavérune, Montpellier","travaux dangereux en fin de PC, pas d'alternative",,2023-07-13 17:16:00,3,Montpellier
E91395C0,43.605341745345974,3.8760173245879774,"Rue Anatole France, Montpellier",circulation sur la PC !,,2023-07-13 17:07:00,7,Montpellier
4EE1B22E,43.606977547654736,3.8660914823412895,"Rue du Faubourg Figuerolles, Montpellier",garé bien tranquillou sur la PC,,2023-07-13 13:45:12,2,Montpellier
5926ED0D,43.59715167431344,3.8454757187202664,"Rue Félix Éboué, Montpellier",à contresens sur la BC,,2023-07-13 06:02:00,2,Montpellier
FBF7BF9C,43.591458018812446,3.8485668339259065,"Rue de Bugarel, Montpellier",circulation à contresens via la PC,,2023-07-12 16:49:00,7,Montpellier
05348F7B,43.592320551912465,3.8427185978880645,"Rue du Pas du Loup, Montpellier","camion dans virage, absence de visibilité ",,2023-07-12 16:46:00,2,Montpellier
2C1E159C,43.602821483652974,3.855078312514269,"Route de Lavérune, Montpellier","sortie de PC tactique da,gereuse",,2023-07-12 16:30:00,2,Montpellier
C6D47AED,43.60739345870289,3.8700339954405165,"Cours Gambetta, Montpellier",au travers de la zone piétonne et PC,,2023-07-12 16:22:00,2,Montpellier
2F01425E,43.60546682338879,3.879507903114319,"Rue Pagézy, Montpellier","@GROUPENICOLLIN stationné en ZdR, as susual",,2023-07-12 06:38:00,2,Montpellier
7E608B67,43.628261863197224,3.8682818412780766,"Rue du Truel, Montpellier",Panneau sur PC,"PC refaite il y a deja plusieurs semaines, mais plot/panneau toujours sur la trajectoire ",2023-07-11 17:14:00,2,Montpellier
F22FB9F4,43.60543963252947,3.8794918070518363,"Rue Pagézy, Montpellier",comme tous les soirs,,2023-07-11 16:57:00,2,Montpellier
A3E972AD,43.611758457768396,3.8657605648040776,"Boulevard des Arceaux, Montpellier",Poids lourd garé sur la piste cyclable,Garé sans scrupule en plein sur la piste cyclable des Arceaux. Merci !  En vélo on n’existe pas…,2023-07-11 10:45:00,7,Montpellier
DF3898C1,43.605459054573096,3.8794864416976753,"Rue Pagézy, Montpellier",@GROUPENICOLLIN stationné en ZdR ,,2023-07-11 06:31:00,2,Montpellier
D15CD58C,43.60588556108218,3.876832727362079,"Place Alexandre Laissac, Montpellier","PC impraticable, cycliste en danger",,2023-07-11 06:29:00,2,Montpellier
954A2F3C,43.59200584532179,3.8445604930042525,"Avenue du XV de France, Montpellier",au milieu du trottoir,,2023-07-10 17:30:00,2,Montpellier
DE4CBD0A,43.63531225351771,3.9241629838943486,"Route de Nîmes, Castelnau-le-Lez",Véhicule qui ne regarde pas à droite,"En sortie de parking, la route étant en sens unique, les véhicules ne regardent jamais à leur droite pour les piétons. Ils s’avancent sur le trottoir et piste cyclable car faible visibilité et absence de miroirs et ne prêtent jamais attention a ce qui arrive sur leur droite. ",2023-07-10 16:16:00,7,Castelnau-le-Lez
64F30E35,43.63423740362366,3.921652436256409,"Route de Nîmes, Castelnau-le-Lez",Feu et panneau au milieu de la PC,Feu de signalisation et panneau cédez le passage implanté au beau milieu de la bande cyclable. D’autant plus dangereux car juste avant le tournant du rond point et donc tres faible visibilité sur les piétons qui viendraient en face. ,2023-07-10 16:14:00,3,Castelnau-le-Lez
F299D762,43.63400966741002,3.9210677146911626,"Avenue de l'Europe, Castelnau-le-Lez",Traversée difficile ,"Deux panneaux indiquent bien la traversée de piétons et cycles, mais peu de véhicules s’arrêtent pour laisser passer les cycles. Un marquage au sol avec des chevrons cycles ou une peinture verte pourrait aider à limiter les incivilités. ",2023-07-10 16:13:00,7,Castelnau-le-Lez
AC23D8A0,43.63007516664763,3.910569548606873,"Chemin du Clos de l'Armet, Castelnau-le-Lez",Pelleteuse garée sur PC,Pelleteuse garée sur la piste cyclable en fin de journée. ,2023-07-10 16:09:00,2,Castelnau-le-Lez
364A38CF,43.59824313955761,3.8463307183207456,"Rue du Pas du Loup, Montpellier",au milieu du trottoir,,2023-07-10 16:05:00,2,Montpellier
597941E8,43.628292926671904,3.905071020126343,", Castelnau-le-Lez",Déviation pour travaux chaotique ,"On est tous content qu’ils refassent le bitume pour la PC, mais la déviation laisse à désirer ! Impraticable pour les trottinettes, vélo de route et vélo cargo car un vrai champ de bosses dans la terre. Un itinéraire alternatif aurait été plus judicieux. Et des panneaux de travaux en amont de la piste cyclable (au niveau du rond point avenue Georges Freche/chemin du mas de rochet) auraient été les bien venus. ",2023-07-10 16:04:00,3,Castelnau-le-Lez
B1C1D9FD,43.62700899678491,3.898944854736328,"Route de la Pompignane, Castelnau-le-Lez",Manque un « sauf vélo » M9v2,Le « sauf ce vélo » n’est que sur le premier sens-interdit alors que l’on retrouve bien le panneau double sens cyclable (C24a) de l’autre coté de la rue. Il manque donc le panonceau M9v2 « sauf vélo » sous le deuxième sens interdit. ,2023-07-10 16:01:00,6,Castelnau-le-Lez
6BD2A981,43.62891807568731,3.8945835828781132,"Pont de la Concorde, Montpellier",Marquages effacés le long du pont,"Marquages vert très peu visibles car effacés, générant des conflits entre vélo et piétons. Vélo sur l’espace piéton et piétons sur la piste cyclable. ",2023-07-10 15:59:00,6,Montpellier
312838ED,43.628780900203374,3.8942268490791325,"Pont de la Concorde, Montpellier",Végétation qui déborde sur PC,Végétation qui déborde sur la piste cyclable (deja bien étroite pour un double sens). ,2023-07-10 15:57:00,2,Montpellier
020F43F9,43.62738953117514,3.8915526866912846,"Rue de la Draye, Montpellier",Feu piéton/vélo tout le temps rouge et sans appe,"Feux piéton qui semble régir aussi la piste cyclable qui reste rouge 95% du temps, même quand le tram passe en parallèle. Aucun bouton d’appel disponible. Résultat tout le monde le grille car il est très rare d’avoir une voiture venant de la rue de la draye, cependant le véhicule n’a aucune visibilité sur la PC et réciproquement. ",2023-07-10 15:56:00,3,Montpellier
6B078675,43.62581944724842,3.878034353256226,"Avenue de la Justice de Castelnau, Montpellier",GCUM,Voiture garée sur le trottoir gênant les piétons. ,2023-07-10 15:50:00,2,Montpellier
4EE36DC8,43.62698569868277,3.8729596138000493,"Avenue de la Justice de Castelnau, Montpellier",Possibilité pour panneau M12f,Piste Cyclable régit par le feu qui ne croise pas la circulation. Un panneau M12f pourrait y être installé pour laisser passer tout droit. ,2023-07-10 15:48:00,6,Montpellier
CBFD4D7E,43.62701676281695,3.869665861129761,"Route de Mende, Montpellier",PC sans signalisation pour le carrefour,Piste cyclable qui débouche sur grand carrefour sans aucun feu de signalisation ou autre. Comment rejoindre la PC obligatoire en face?,2023-07-10 15:46:00,3,Montpellier
B13CFC19,43.637257951060505,3.8667958974838257,"Route de Mende, Montpellier",Poubelles,Poubelles au milieu de l’aménagement cyclable provisoire. ,2023-07-10 15:40:00,2,Montpellier
9215DDDF,43.64016321627873,3.8641405105590825,"Route de Mende, Montpellier",Voie partagée dangereuse,Voie partagée faite pendant les travaux du tram qui n’est qu’un champ de nid de poule au milieu de gravier glissant. Aménagement provisoire déplorable. ,2023-07-10 15:39:00,3,Montpellier
45C8DDD7,43.61358051227781,3.8278280943632126,"Allée Pierre Lescot, Montpellier",stationnement sauvage espace piéton ,,2023-07-10 09:44:47,2,Montpellier
B1B0CB5E,43.605408621971,3.879481058556982,"Rue Pagézy, Montpellier","@GROUPENICOLLIN stationné en ZdR, as susual",,2023-07-10 06:36:00,2,Montpellier
04B14A3B,43.598311383801956,3.846339664310135,"Rue du Pas du Loup, Montpellier",sur la B et trottoir,,2023-07-10 06:22:00,2,Montpellier
B5616C6B,43.61642362994245,3.8137310743331914,"Rue de la Voie Lactée, Juvignac",Voiture sur piste cyclable,La piste cyclable n'est pas une place de parking...,2023-07-09 11:24:00,2,Juvignac
3DA166DC,43.60715,3.86645,"Rue du Faubourg Figuerolles, Montpellier",,,2023-07-09 10:27:00,2,Montpellier
6B4AD3EC,43.59260943622544,3.843221552261774,"Rue du Pas du Loup, Montpellier",trottoir condamné,,2023-07-08 10:37:00,2,Montpellier
825A8C1D,43.591274631814905,3.8473873010572484,"Rue de Bugarel, Montpellier",Et place libre  juste à côté ...,,2023-07-08 10:35:00,2,Montpellier
3F2D2A5C,43.60138800859625,3.8691746816039085,"Boulevard Berthelot, Montpellier","scooter sur trottoir, bacs sur la pc",,2023-07-07 17:30:00,2,Montpellier
AF5D9EF5,43.59020311466867,3.852224785683363,"Rue Jacques Fouroux, Montpellier",stationnement sur la passage piéton,,2023-07-07 17:16:00,2,Montpellier
AACC659E,43.65866592578842,3.969944268465042,"Rue des Devèzes, Vendargues",aucun trottoir dispo pour piétons,,2023-07-07 15:07:00,2,Vendargues
A63C6193,43.65878647831918,3.972549363970756,"Rue de la Cadoule, Vendargues",parking à vélo kiné ,,2023-07-07 07:36:09,8,Vendargues
B56CBE3D,43.612798626851685,3.859689640045173,"Avenue de l'École d'Agriculture Gabriel Buchet, Montpellier",Voiture garée en travers de la piste cyclable,"J’ai été dire dans le magasin que la voiture barrait la voie cyclable, la propriétaire du véhicule m’a répondu « je sais » et n’a pas bougé pour déplacer sa voiture, et a ensuite clairement refusé de me parler. Je me suis donc arrêté pour faire la photo.",2023-07-06 18:14:00,2,Montpellier
C96B93B5,43.61426475158077,3.8577540426257078,"Avenue de l'École d'Agriculture Gabriel Buchet, Montpellier",Un habitué @pmmontpellier,,2023-07-06 07:30:00,7,Montpellier
EAFE4A70,43.60548231247396,3.8794900244593222,"Rue Pagézy, Montpellier",@GROUPENICOLLIN & Cie sur zone de rencontre,,2023-07-06 06:47:00,2,Montpellier
5A64204B,43.60597563008892,3.8769688968222265,"Place Alexandre Laissac, Montpellier",places de livraison inaccessibles + camion sur PC ,,2023-07-06 06:45:00,7,Montpellier
E7B19800,43.605303629505116,3.8759708278763365,"Rue Anatole France, Montpellier",circulation de voitures sur la piste cyclable,,2023-07-06 06:44:00,7,Montpellier
074D1C0D,43.632144066446536,3.9348039776086807,"not found, Le Crès",travaux en cours durée 1 mois ,,2023-07-05 06:58:00,100,Le Crès
18EB51F2,43.658371456415935,3.9620501920580864,"Route de Jacou, Vendargues",en attendant l'ouverture...,,2023-07-05 06:41:00,2,Vendargues
23F5ACFE,43.607144087217286,3.86649550474822,"Rue du Faubourg Figuerolles, Montpellier",SUV au travers de la piste et du trottoir,,2023-07-04 22:03:00,2,Montpellier
D9E5DC75,43.635426079895005,3.9248850848562316,"Route de Nîmes, Castelnau-le-Lez",Parking sur trottoir et PC,,2023-07-04 11:53:00,2,Castelnau-le-Lez
A0688229,43.62790208389304,3.9275103807449345,"Boulevard Philippe Lamour, Castelnau-le-Lez",Végétation bouche 60% piste cyclable,,2023-07-04 11:16:00,4,Castelnau-le-Lez
33298124,43.62469079136952,3.9200913906097417,"Chemin des Cauquilloux, Castelnau-le-Lez",J’en ai pour 2mn. ,,2023-07-04 11:15:00,2,Castelnau-le-Lez
5F45F97C,43.614478779429916,3.881016588958373,"Rue Michel Vernière, Montpellier",A l’aise. J’en ai pour 2mn,,2023-07-04 11:12:00,2,Montpellier
49AD19AE,43.60545050888652,3.879477375422265,"Rue Pagézy, Montpellier",@GROUPENICOLLIN & Cie sur zone de rencontre,,2023-07-04 07:00:00,2,Montpellier
D1546647,43.60533822509419,3.875989714016988,"Rue Anatole France, Montpellier",piste cyclable interdite,le conducteur semblait disposé à se garer sur la place de livraison (pas vérifié),2023-07-04 06:57:00,2,Montpellier
0D8D88B1,43.59824874836793,3.84631131529484,"Rue du Pas du Loup, Montpellier",mise en danger et insultes par 2 personnes,,2023-07-04 06:44:00,9,Montpellier
A843A3C8,43.59786688835283,3.845938997587895,"Rue du Pas du Loup, Montpellier",sur PC et trottoir,,2023-07-03 16:08:00,2,Montpellier
F26686EC,43.60543904987696,3.87620780100106,"Rue Anatole France, Montpellier",déchargement épicerie sur PC,"épicerie Sucré Salé, Altercation, insultes sur cyclistes",2023-07-03 15:54:00,2,Montpellier
3D5F6B4C,43.60546682338879,3.879504374806673,"Rue Pagézy, Montpellier",Zone de rencontre transformée en parking,,2023-07-03 15:52:00,2,Montpellier
1DCA0765,43.60545827770333,3.8794720126529962,"Rue Pagézy, Montpellier",@GROUPENICOLLIN stationné en zone de rencontre,,2023-07-03 06:45:00,2,Montpellier
82B50143,43.60603316736226,3.876982915734337,"Place Alexandre Laissac, Montpellier",sur la piste cyclable,"place de livraison à droite : ""'suis handicapé!""",2023-07-03 06:43:00,2,Montpellier
883B4513,43.614477197225845,3.864853978157044,"avenue d’Assas, Montpellier",Chute d’enfant en percutant ce véhicule ,"En allant à l’école, mon fils a chuté en percutant ce même véhicule quelques jours plus tôt.
Vu la largeur restante de bande cyclable et la circulation à gauche, heureusement qu’il n’a pas terminée sa chute sur la route! Une belle frayeur!",2023-07-03 06:37:00,9,Montpellier
1802094B,43.61533103227756,3.863612737892153,"avenue d’Assas, Montpellier",Véhicule garé empiétant sur la bande cyclable,Un classique de l’avenue des arceaux avec ses stationnements en épis ,2023-07-03 06:36:00,2,Montpellier
FBD82E9E,43.60623976699142,3.8673348446202658,"Place Bouschet de Bernard, Montpellier",sur la piste cyclable,cycliste relégué sur trottoir ou face aux voitures,2023-07-03 06:36:00,2,Montpellier
0097B84D,43.59833773618943,3.8463896605689483,"Rue du Pas du Loup, Montpellier",sur trottoir,,2023-07-03 06:28:00,2,Montpellier
E4C77542,43.59270829926323,3.8441955691807332,"Avenue du XV de France, Montpellier",sur la PC,,2023-07-01 16:04:00,2,Montpellier
05811487,43.59199807476789,3.8447274702426886,"Avenue du XV de France, Montpellier",sur la pc,,2023-07-01 16:03:00,2,Montpellier
82010CB5,43.58979644217633,3.853010668013335,"Avenue Roger Couderc, Montpellier",camion sur passage piéton,,2023-07-01 16:00:00,2,Montpellier
8EAB8FC3,43.58974496034807,3.8529060260906083,"Avenue Roger Couderc, Montpellier",dans virage et passage piéton,,2023-07-01 16:00:00,2,Montpellier
8CC05A85,43.68732926657254,3.8243841379880905,"nouvel itinéraire cyclable, Saint-Gély-du-Fesc",rébellion anti cyclistes ???   ,,2023-07-01 08:45:00,2,Saint-Gély-du-Fesc
D8BB79C9,43.60265833113848,3.8555997323146856,"Rue des Chasseurs, Montpellier",moto sur PC pour circuler à contresens,,2023-07-01 07:43:00,2,Montpellier
2C9313DB,43.59781405370366,3.845890416829479,"Rue du Pas du Loup, Montpellier",sur trottoir / PC,,2023-07-01 07:40:00,2,Montpellier
1A872284,43.60545123721313,3.8794846533814598,"Rue Pagézy, Montpellier",stationnement sur zone de rencontre,,2023-06-30 11:29:00,2,Montpellier
B757D331,43.6074006324998,3.8671636796113793,"Rue du Faubourg Figuerolles, Montpellier",sans commentaire,,2023-06-30 11:25:00,2,Montpellier
3E9CB04C,43.606971599804695,3.8661025102577096,"Rue du Faubourg Figuerolles, Montpellier",no comment,,2023-06-30 11:24:00,2,Montpellier
44A34510,43.606615031189115,3.8649994612778342,"Impasse Saint-Joseph, Montpellier",dans virage et sur PP,,2023-06-30 11:24:00,2,Montpellier
70A66106,43.60191559315907,3.856866340314849,"Rue des Chasseurs, Montpellier",2rm à  contresens,,2023-06-30 11:20:00,7,Montpellier
F2DFF480,43.601345277200416,3.857946780068314,"Rue des Chasseurs, Montpellier",2rm à  contresens,,2023-06-30 11:20:00,7,Montpellier
3C791CED,43.59844724080415,3.8464455324652573,"Rue du Pas du Loup, Montpellier",à contresens et sur la BC,,2023-06-30 11:17:00,2,Montpellier
F931CC12,43.61556902781934,3.881115540862084,"Rue Proudhon, Montpellier",velo dépouillé bloquant un arceau,,2023-06-30 07:36:00,100,Montpellier
CADE12A9,43.6123752340095,3.860402720366443,"Avenue de l'École d'Agriculture Gabriel Buchet, Montpellier",Stationnement dangereux aggravé par le boudin,Solution simple : passer le stationnement en longitudinal le long du trottoir,2023-06-30 07:08:00,3,Montpellier
F6DA271C,43.61509472234455,3.8639098405838017,"Avenue d’Assas, Montpellier",Véhicule empiétant sur la bande cyclable,,2023-06-30 06:36:00,2,Montpellier
B44582F0,43.597852854159015,3.845924341275012,"Rue du Pas du Loup, Montpellier",sur trottoir et pc,,2023-06-29 16:31:00,2,Montpellier
F14B1635,43.59290571725795,3.90506599098444,"not found, Montpellier",pince roue...,,2023-06-29 15:00:41,3,Montpellier
496D9D96,43.62644960642221,3.8954211026466408,"Avenue François Delmas, Montpellier",Stationnement sur bande  cyclable,,2023-06-29 14:37:00,2,Montpellier
316174D5,43.61659772867988,3.861882090568543,"Avenue d’Assas, Montpellier",Véhicule empiétant sur la bande cyclable,Stationnements en épis et bande cyclable entre les places et la route,2023-06-29 07:09:00,3,Montpellier
BCC99255,43.61584428833941,3.863008618354798,"avenue d’Assas, Montpellier",Véhicule empiétant sur la bande cyclable,Stationnement en épis et bande cyclable entre places et route.,2023-06-29 07:09:00,3,Montpellier
D6BD672D,43.60542404634677,3.879480147734285,"Rue Pagézy, Montpellier",@GROUPENICOLLIN & Cie sur zone de rencontre,,2023-06-29 06:56:00,2,Montpellier
6B753828,43.60539612714084,3.8760977983474736,"Rue Anatole France, Montpellier",Et 2 places de livraisons à côté...,,2023-06-29 06:53:00,2,Montpellier
6CA63276,43.62482,3.8614,"Avenue Charles Flahault, Montpellier",véhicule gênant ,,2023-06-28 10:22:00,2,Montpellier
B5D7F9AF,43.60543885565945,3.8794666528701787,"Rue Pagézy, Montpellier",comme d'hab avec Nico + pas de signalement travau,,2023-06-28 06:28:00,2,Montpellier
89309A25,43.594981116690164,3.8441352841170326,"Rue François Bélanger, Montpellier",arrêt sur trottoir,,2023-06-27 16:10:00,2,Montpellier
897D3E5C,43.60643791744962,3.8719672118389212,"Cours Gambetta, Montpellier",scooter garé au travers de la PC,,2023-06-27 15:57:00,2,Montpellier
4DEB4E2D,43.605447401347675,3.8794990078784117,"Rue Pagézy, Montpellier",stationnés en zdr,,2023-06-27 15:53:00,2,Montpellier
84912C47,43.60546289043781,3.8794962409883746,"Rue Pagézy, Montpellier","@GROUPENICOLLIN stationné en zdr, ts les matins",,2023-06-27 06:36:00,2,Montpellier
E0F954CF,43.60612712051309,3.8770929817110305,"Place Alexandre Laissac, Montpellier","2 RM sur la piste, aux feux",,2023-06-27 06:34:00,7,Montpellier
82285958,43.59834307788257,3.8463683612644677,"Rue du Pas du Loup, Montpellier",trottoir impraticable,,2023-06-27 06:14:00,2,Montpellier
CC25717D,43.59759256534816,3.845791602507234,"Rue du Pas du Loup, Montpellier",sur BC à un carrefour,,2023-06-26 16:27:00,2,Montpellier
AA0DAFFD,43.6068259379873,3.8658611895516524,"Rue du Faubourg Figuerolles, Montpellier",sur trottoir et PC,,2023-06-26 16:18:00,2,Montpellier
59D760B4,43.60735456731677,3.870028043165804,"Cours Gambetta, Montpellier","au travers du trottoir, mode balek","interpellé, pas même lancé un regard ",2023-06-26 16:16:00,2,Montpellier
C03FD49F,43.613438264871625,3.8410265743732457,"Avenue de Lodève, Montpellier",,,2023-06-26 09:09:00,2,Montpellier
C9E1ED3F,43.605443468395436,3.8794756133077306,"Rue Pagézy, Montpellier",@GROUPENICOLLIN stationné en zone de rencontre,,2023-06-26 06:45:00,2,Montpellier
998DF157,43.606205536079585,3.8768396875595372,"Boulevard de l'Observatoire, Montpellier",à contresens sur espace piéton,,2023-06-26 06:40:00,2,Montpellier
076EDFB4,43.65520327242061,3.968520015478134,"Passage Yvonne Barre, Vendargues",,,2023-06-25 16:09:00,2,Vendargues
FAC75602,43.65841487497265,3.970687910914421,"Rue de la Cadoule, Vendargues",tjrs les 2 mêmes qui bloquent les 2 trottoirs ,,2023-06-23 11:33:00,2,Vendargues
85058083,43.65864191227753,3.9714359119534492,"Rue de la Cadoule, Vendargues",ces deux là ont pourtant une poussette ,,2023-06-23 11:32:00,2,Vendargues
91FE87D9,43.65861183473519,3.9712484925985336,"Rue de la Cadoule, Vendargues",zéro place piéton ,,2023-06-23 10:59:00,2,Vendargues
891825E1,43.5792296511277,3.8597666907780463,"Avenue Étienne Méhul, Montpellier",espace piéton=parking. Récurrent,,2023-06-23 10:45:00,2,Montpellier
3687B178,43.53377621013424,3.863607744428551,"Boulevard des Écoles, Villeneuve-lès-Maguelone",sur trottoir et PC,,2023-06-23 10:24:00,2,Villeneuve-lès-Maguelone
D47FF73F,43.59271995495617,3.844136612018661,"Avenue du XV de France, Montpellier",espèce protégée tuée par un chauffard #herisso,,2023-06-23 06:57:00,9,Montpellier
E58220BB,43.592403672070866,3.842816356148751,"Rue du Pas du Loup, Montpellier","sur trottoir, récurrent",,2023-06-23 06:55:00,2,Montpellier
A6DB3895,43.592355470656024,3.8427132764628436,"Rue du Pas du Loup, Montpellier",sur trottoir,,2023-06-23 06:55:00,2,Montpellier
972FCA05,43.59238193894403,3.8427525831154967,"Rue du Palais d'Été, Montpellier",#LaPoste prend sens interdit puis stationne sur PP,,2023-06-23 06:54:00,2,Montpellier
4490EFCF,43.594953921091644,3.844410206148093,"Rue Gustave Flaubert, Montpellier","devant passage piéton, sur zebra, 0 visibilité",,2023-06-22 19:31:00,2,Montpellier
BFEA4EDC,43.60852377448959,3.8666349451737463,"Rue Pagès, Montpellier",Trottoir transformé en parking,,2023-06-22 19:20:00,2,Montpellier
BF8D3655,43.608512510287866,3.8640466088467567,"Rue Louis Braille, Montpellier",trottoir impraticable,,2023-06-22 19:19:00,2,Montpellier
EA845625,43.61037263012582,3.8655568126215516,"Rue Marioge, Montpellier",stationné en zdr,et voiture derrière qui déboule à fond en zone 20,2023-06-22 19:18:00,2,Montpellier
CD61E05E,43.59245653573258,3.8429080840638945,"Rue du Pas du Loup, Montpellier",sur trottoir,,2023-06-22 08:31:00,2,Montpellier
D11454ED,43.61042312328502,3.865567546478115,"Rue Marioge, Montpellier",festival de GCUM en zone de rencotre,,2023-06-21 19:00:00,2,Montpellier
F66DA596,43.6128576200924,3.870196953576262,"Rue du Carré du Roi, Montpellier",reomontée de motos et scooters via la PC,,2023-06-21 18:51:00,2,Montpellier
DF15C52C,43.60640295833546,3.8720052196318338,"Cours Gambetta, Montpellier","sur la PC, depuis le matin",,2023-06-21 16:12:00,2,Montpellier
54D970D2,43.60556004909887,3.8795634110178328,"Rue Pagézy, Montpellier",nombreux véhicules stationnés en zone de rencotr,,2023-06-21 16:07:00,2,Montpellier
62FD030D,43.60545123721313,3.8794694188982253,"Rue Pagézy, Montpellier",@GROUPENICOLLIN sur zone de rencontre,,2023-06-21 06:44:00,2,Montpellier
133F7067,43.60571149202659,3.8796464446932086,"Rue Pagézy, Montpellier","#GCUM en série rue Pagezy, com d'hab",,2023-06-21 06:42:00,2,Montpellier
45425F8F,43.60529938092264,3.875302565284074,"Rue du Grand Saint-Jean, Montpellier",déchargement au travers de l'entrée de la PC,,2023-06-21 06:40:00,2,Montpellier
2FECDB5B,43.66041573294658,3.9472796022891994,"Via Tolosana, Le Crès",encore des pinces roues,,2023-06-20 16:40:00,3,Le Crès
DFD55CEA,43.620640270057,3.8769192248582844,"Rue de Nazareth, Montpellier",camionette bloquant gout,,2023-06-20 06:41:00,2,Montpellier
CA551A47,43.59757649150299,3.845784676434919,"Rue du Pas du Loup, Montpellier",sur la BC,,2023-06-19 19:41:00,2,Montpellier
14CC79DE,43.597901075445336,3.8459443194097584,"Rue du Pas du Loup, Montpellier",sur le trottoir /PC,,2023-06-19 19:41:00,2,Montpellier
BA240031,43.60872667558921,3.896992541849613,"Avenue du Pirée, Montpellier",piste cyclable défoncée ,,2023-06-19 16:30:00,4,Montpellier
3B771217,43.60716423701648,3.896574452519417,"Avenue du Pirée, Montpellier",danger pour vélos et piétons ,,2023-06-19 16:30:00,4,Montpellier
CEA410FE,43.60284814157827,3.8966586068272595,"Allée Capitaine Dreyfus, Montpellier",énormes trous sur la promenade depuis le Fise,,2023-06-19 16:24:00,4,Montpellier
05280F4C,43.60547065925302,3.8794747833162555,"Rue Pagézy, Montpellier","comme d'hab, en ZDR @GROUPENICOLLIN",,2023-06-19 06:52:00,2,Montpellier
3A1F9AD0,43.60739268185808,3.8699877262115483,"Cours Gambetta, Montpellier","comme d'habitude, toujours le même",,2023-06-19 06:48:00,2,Montpellier
3F70E895,43.60196366552156,3.856775332242251,"Rue des Chasseurs, Montpellier",à contresens via la bande cyclable,,2023-06-19 06:42:00,7,Montpellier
6F6FC68E,43.59828796129867,3.8463602308183913,"Rue du Pas du Loup, Montpellier",trottoir impraticable,,2023-06-19 06:39:00,2,Montpellier
D39798BF,43.59244871668311,3.8428840879350905,"Rue du Pas du Loup, Montpellier",sur trottoir,,2023-06-18 06:45:00,2,Montpellier
FD42E220,43.59831199893398,3.8463683612644677,"Rue du Pas du Loup, Montpellier",merci pour les #PMR,,2023-06-18 05:05:00,2,Montpellier
77CC0A38,43.53792955525838,3.8646368030458693,"M 185, Villeneuve-lès-Maguelone",traversée dangereuse,,2023-06-17 07:29:00,8,Villeneuve-lès-Maguelone
B19483F6,43.59246425767359,3.8428840879350905,"Rue du Pas du Loup, Montpellier","sur le trottoir, un habitué",,2023-06-17 06:59:00,2,Montpellier
9FA6EECC,43.61813777596119,3.9131651725656473,"Avenue Henri Becquerel, Montpellier",Stationnement moteur allumé sur trottoir et PC,,2023-06-16 07:48:00,2,Montpellier
4F978A36,43.624866261678086,3.920300602912903,"Chemin des Cauquilloux, Castelnau-le-Lez",débroussaillage nécessaire,,2023-06-15 07:07:00,4,Castelnau-le-Lez
1280FBA6,43.63395579681024,3.9344442263245583,"not found, Le Crès",bosse plaque d'égout dangereuse,,2023-06-15 07:02:00,3,Le Crès
8B213636,43.6318676672054,3.9349005371332173,"not found, Le Crès",bosse plaque d'égout dangereuse ,,2023-06-15 07:02:00,3,Le Crès
4BBE1A95,43.67343,3.86736,"D17, Montferrier-sur-Lez",aménagement dangereux source d'accident ,,2023-06-14 15:42:00,9,Montferrier-sur-Lez
DE3572AA,43.60546604651912,3.879488103030827,"Rue Pagézy, Montpellier",@GROUPENICOLLIN stationné en ZdR au quotidien,,2023-06-14 06:40:00,2,Montpellier
463BB968,43.59826081574368,3.8463606050272157,"Rue du Pas du Loup, Montpellier",sur trottoir,,2023-06-14 06:28:00,2,Montpellier
6BA7D52D,43.598085996210024,3.846201800112277,"Rue du Pas du Loup, Montpellier",contresens + à 1/2 sur la BC depuis +eurs jrs,,2023-06-14 06:28:00,2,Montpellier
D0284123,43.59791894595887,3.8459641413619976,"Rue du Pas du Loup, Montpellier",@JCDecaux_France sur piste cyclable et trottoir,,2023-06-14 06:27:00,2,Montpellier
7B3BAEBF,43.6074812920041,3.870020918548107,"Cours Gambetta, Montpellier",habituel ici !!,,2023-06-13 16:36:00,2,Montpellier
67C036E8,43.59760582261671,3.845785417753445,"Rue du Pas du Loup, Montpellier",sur la bande cyclable,,2023-06-13 16:22:00,2,Montpellier
827BBBDA,43.60716855829488,3.8664979838307993,"Rue du Faubourg Figuerolles, Montpellier","pause kébab, tout est permis !!!!",le conducteur de la voiture derrière est parti après de vifs échanges,2023-06-13 16:13:00,2,Montpellier
CDE3975A,43.60955851919061,3.8816334765262805,"Avenue Frédéric Mistral, Montpellier",Impunitay R417-10 III 6° @policenat34,,2023-06-13 05:59:00,7,Montpellier
47BFE7C4,43.6058708004224,3.8797269165297625,"Rue Pagézy, Montpellier",Zone de rencontre transformée en parking,,2023-06-12 19:07:00,2,Montpellier
CD504495,43.60533589734783,3.8759939492736635,"Rue Anatole France, Montpellier",Véhicule garé sur la piste cyclable,,2023-06-12 15:45:00,2,Montpellier
F2C5643B,43.60716279396945,3.8664759331229277,"Rue du Faubourg Figuerolles, Montpellier",Véhicule garé sur la piste cyclable,,2023-06-12 15:41:00,2,Montpellier
3128ED25,43.61481198205911,3.857144895976946,"Avenue de l'École d'Agriculture Gabriel Buchet, Montpellier","Nouvelle bande, nouveau GCUM @groupenicollin",,2023-06-12 06:34:00,2,Montpellier
F0E2D7EC,43.602164986319536,3.8534895479460833,"Route de Lavérune, Montpellier",fourgon sur la PC,,2023-06-12 06:34:00,2,Montpellier
FCC63969,43.59787621209919,3.8459257185240863,"Rue du Pas du Loup, Montpellier",sur le trottoir / PC,,2023-06-12 06:32:00,2,Montpellier
2CC420FD,43.59818700311365,3.8462636768599627,"Rue du Pas du Loup, Montpellier",combo contresens + à 1/2 sur la BC,,2023-06-12 06:32:00,2,Montpellier
99AF2B0B,43.61168932249364,3.860915909800991,"Boulevard Benjamin Milhaud, Montpellier",Et quand on veut continuer la descente tout droit?,,2023-06-12 06:30:00,3,Montpellier
722D0DD3,43.60903648804997,3.866967120454548,"Rue Saint-Louis, Montpellier","nouvel aménagement, nouveau GCUM",,2023-06-12 06:26:00,2,Montpellier
EECD616A,43.61080468513602,3.8335958495736118,"Rue Pierre Causse, Montpellier",panneau sens interdit deboulonné qui masque le pa,,2023-06-12 05:20:00,4,Montpellier
8F45CE22,43.6586397292306,3.9711016416549687,"Rue de la Cadoule, Vendargues",,,2023-06-11 16:04:00,2,Vendargues
629A4D31,43.65864797629635,3.9717966690659527,"Rue de la Cadoule, Vendargues",,,2023-06-11 16:03:00,2,Vendargues
39B3FB90,43.592610391350334,3.8432247953545677,"Rue du Pas du Loup, Montpellier",trottoir condamné,,2023-06-11 10:31:00,2,Montpellier
F9BD9895,43.59241768324391,3.8428383064653957,"Rue du Pas du Loup, Montpellier",sur trottoir,,2023-06-11 10:30:00,2,Montpellier
965B0E03,43.59824080865389,3.846316028065373,"Rue du Pas du Loup, Montpellier",sur trottoir,,2023-06-11 06:22:00,2,Montpellier
CEBF18F7,43.59782182350662,3.845912007545174,"Rue du Pas du Loup, Montpellier",trottoir et PC impraticable,pas à son coup d'essais...,2023-06-10 14:21:00,2,Montpellier
688EE872,43.60243438417782,3.854082190432729,"Route de Lavérune, Montpellier",sur la PC et davant passage piéton,,2023-06-10 11:32:00,2,Montpellier
C6451D68,43.6446486495031,3.9148808643221855,"Avenue de la Monnaie, Castelnau-le-Lez",piste cyclable squatée des 2 côtés.  comme touj,,2023-06-10 09:57:00,2,Castelnau-le-Lez
F720C132,43.59259970694576,3.8432286950379444,"Rue du Pas du Loup, Montpellier",trottoir impraticable,,2023-06-10 09:52:00,2,Montpellier
70830233,43.569482762884896,3.952189050614834,"Piste cyclable de Montpellier à Carnon, Pérols",impossible d'accéder à la piste cyclable ,,2023-06-10 09:35:00,3,Pérols
9831A943,43.5878682719446,3.8540716423351333,"Avenue de Toulouse, Montpellier",sas vélo effacé,,2023-06-10 09:06:00,6,Montpellier
45145037,43.591321255683845,3.8475108146667485,"Rue de Bugarel, Montpellier",sur la PC,,2023-06-10 09:03:00,2,Montpellier
29B0CDDB,43.610427007372415,3.8655459783547084,"Rue Marioge, Montpellier",garé en ZDR,,2023-06-10 07:39:00,2,Montpellier
DED09A24,43.614905193285196,3.8806099996874814,"Quai du Verdanson, Montpellier",fait ses petites affaires tranquillou sur la PC,malgré des places libres 30 mètres à dorite...,2023-06-10 06:59:00,2,Montpellier
DA2A8E53,43.60683411932353,3.879901329189597,"Rue de Maguelone, Montpellier",livraison au travers du trottoir !,,2023-06-10 06:53:00,2,Montpellier
DD8F5169,43.60552897387825,3.8794989325706912,"Rue Pagézy, Montpellier",@groupeNicollin em...les piétons même le samedi ,,2023-06-10 06:49:00,2,Montpellier
F6957C5E,43.59504016993571,3.8444231342217443,"Rue Gustave Flaubert, Montpellier",à 1/2 sur passage piéton et zebras,,2023-06-08 19:03:00,2,Montpellier
AD743037,43.59712681067242,3.8454367159546092,"Rue du Pas du Loup, Montpellier",sur le trottoir,,2023-06-08 18:26:00,2,Montpellier
DBC8856D,43.60738146598623,3.869138071479297,"Rue de la Palissade, Montpellier","au milieu du trottoir, avec un ""A""...",,2023-06-08 18:15:00,2,Montpellier
A55E714C,43.60547842806721,3.8794958564840254,"Rue Pagézy, Montpellier",fête du slip en ZDR avec @GROUPENICOLLIN,,2023-06-08 06:41:00,2,Montpellier
0784562E,43.590277552306205,3.8522240129524437,"Rue Jacques Fouroux, Montpellier",sur trottoir et entrée de parc,,2023-06-07 16:40:00,2,Montpellier
5BCFE70B,43.60599116758588,3.8798131880693947,"Rue Pagézy, Montpellier",Zdr transformée en parking,,2023-06-07 06:39:00,2,Montpellier
A01E007C,43.60547842806721,3.8794860923953682,"Rue Pagézy, Montpellier",@GROUPENICOLLIN & Cie sur zone de rencontre,,2023-06-07 06:38:00,2,Montpellier
DCA19948,43.60242205056372,3.8540591310996457,"Route de Lavérune, Montpellier",planté au milieu de la zone cyclable,,2023-06-06 16:56:00,2,Montpellier
18B93561,43.60737010445752,3.8700191999225058,"Cours Gambetta, Montpellier",l'habitué du quartier... ,,2023-06-06 16:39:00,2,Montpellier
1CBCA0BA,43.576173033345796,3.850793838500977,"Chemin de La Rencontre, Saint-Jean-de-Védas",,Volé sur le parking de ma résidence.,2023-06-06 10:00:00,10,Saint-Jean-de-Védas
0FD150A5,43.60547842806721,3.879502179067843,"Rue Pagézy, Montpellier",@GROUPENICOLLIN stationné en zone de rencontre,,2023-06-06 06:40:00,2,Montpellier
AFA2FE7F,43.597856010639546,3.8460195086483537,"Rue du Pas du Loup, Montpellier",sur la bande cyclable,,2023-06-06 06:27:00,2,Montpellier
6D85BCFC,43.605546842155775,3.8763790764424093,"Rue Anatole France, Montpellier",Double combo !,,2023-06-06 06:02:00,7,Montpellier
F5F23DED,43.60955657711888,3.881649758038939,"Avenue Frédéric Mistral, Montpellier","un habitué, pile devant @policenat34 !?",,2023-06-06 05:58:00,7,Montpellier
92609DBC,43.605699498959794,3.879647419156798,"Rue Pagézy, Montpellier",stationné en ZDR,,2023-06-05 15:58:00,2,Montpellier
5E6C5070,43.605486196880406,3.879485512152315,"Rue Pagézy, Montpellier",@GROUPENICOLLIN stationné en zone de rencontre,,2023-06-05 06:47:00,2,Montpellier
9F39E46F,43.6073949881512,3.8671593787148604,"Rue du Faubourg Figuerolles, Montpellier",combo virage+PC+BC+passage piétons !!! @LColissim,,2023-06-05 06:39:00,2,Montpellier
FA57A832,43.53392,3.91807,"not found, Palavas-les-Flots",passage d'un pont souvent occupé par les véhicu,,2023-06-04 09:06:00,7,Palavas-les-Flots
4F4AB2DE,43.594934495656574,3.8445174694061284,"Rue Gustave Flaubert, Montpellier",,,2023-06-04 07:55:00,2,Montpellier
BD4FEC1A,43.59413882443617,3.8458232468043367,"Rue Gustave Flaubert, Montpellier","trottoir impraticable, transformé en parking",,2023-06-04 07:54:00,2,Montpellier
CD868D5F,43.59394204183259,3.8469064286370855,"Rue Alfred Jarry, Montpellier",sur trottoir et dans virage,,2023-06-04 07:53:00,2,Montpellier
BD71F9EC,43.59497723160542,3.844345802274219,"Rue Gustave Flaubert, Montpellier","devant passage piéton, sur zebra, 0 visibilité",,2023-06-04 07:52:00,2,Montpellier
36D31789,43.59835502383731,3.8464185852453214,"Rue du Pas du Loup, Montpellier",merci pour les PMR !!!!,,2023-06-04 07:50:00,2,Montpellier
A31B9AC7,43.59478084023243,3.837975411379225,"Rue Rouget de Lisle, Montpellier","Trottoirs transformés en parking, #taxi included",,2023-06-04 06:48:00,2,Montpellier
A4C6A53D,43.59435736310852,3.8403196484555617,"Rue de Cheng Du, Montpellier",plates bandes transformées en parking,,2023-06-04 06:47:00,2,Montpellier
75423F0A,43.59411259974215,3.8406361187749525,"Rue de Cheng Du, Montpellier","sur les plates bandes, tous les jours",,2023-06-04 06:46:00,2,Montpellier
67B6D5F4,43.592340949505065,3.8427012182925013,"Rue du Pas du Loup, Montpellier",sur le trottoir,,2023-06-03 16:11:00,2,Montpellier
85B746AB,43.61336568458079,3.841528818011284,"Avenue de Lodève, Montpellier",,,2023-06-03 13:33:00,2,Montpellier
A48C0983,43.6157578751196,3.856051303446293,"Avenue de l'École d'Agriculture Gabriel Buchet, Montpellier",,,2023-06-03 13:07:00,2,Montpellier
EBA25E30,43.6208,3.85052,"Allée du Picpoul, Montpellier",,,2023-06-03 12:55:00,5,Montpellier
1F166740,43.59827247036119,3.846354228447511,"Rue du Pas du Loup, Montpellier",Trottoirs transformés en parking,,2023-06-03 07:30:00,2,Montpellier
3B590314,43.61188,3.86464,"Boulevard des Arceaux, Montpellier",,,2023-06-02 08:51:00,2,Montpellier
E2ED4302,43.60598,3.87636,"Place Alexandre Laissac, Montpellier",stationnement sauvage halles laissac,,2023-06-02 08:32:00,2,Montpellier
C5018220,43.60872,3.86804,"Plan Cabanes, Montpellier",Arceaux squattés ,,2023-06-02 07:49:00,7,Montpellier
649CDD0C,43.60749318760283,3.87007087469101,"Cours Gambetta, Montpellier",pratiquement tous les jours,,2023-06-01 17:25:00,2,Montpellier
B3E7330C,43.61359,3.82851,"Rue du Bassin, Montpellier",voiture garée en plein milieu de la rue,,2023-06-01 14:20:00,2,Montpellier
04BA9506,43.610673607367886,3.91476259567208,"Avenue Henri Becquerel, Montpellier",Moto sur PC. Tranquille ,,2023-06-01 10:28:00,7,Montpellier
FC9F1612,43.6149,3.8246,"Route de Lodève, Montpellier",3 voitures sur la pc!!!!,,2023-06-01 09:32:00,2,Montpellier
0C53A7F9,43.622088528416946,3.835397623479366,"station hôtel du département   rue des moulins, Montpellier",,,2023-06-01 06:51:00,2,Montpellier
8ACEFFB6,43.658302568808985,3.9619217813014984,"Route de Jacou, Vendargues",,,2023-06-01 06:44:00,2,Vendargues
B0E07FA2,43.597910399201204,3.845976596043044,"Rue du Pas du Loup, Montpellier",ambulance sur PC,,2023-06-01 06:32:00,2,Montpellier
873AC5EF,43.59235551920984,3.8426797733862914,"Rue du Pas du Loup, Montpellier",stationnement sur trottoir,,2023-05-31 18:49:00,2,Montpellier
78D7D234,43.59240991274316,3.842824595434325,"Rue du Pas du Loup, Montpellier",stationnement sur trottoir,,2023-05-31 18:49:00,2,Montpellier
7D3C552A,43.59822196700231,3.846338239374486,"Rue du Pas du Loup, Montpellier",SUV sur trottoir,,2023-05-31 18:46:00,2,Montpellier
2178FA12,43.6023669862621,3.8540523063631897,"Route de Lavérune, Montpellier",stationnement sur trottoir,,2023-05-31 18:43:00,2,Montpellier
3C6605D5,43.602561216336454,3.854427610606913,"Route de Lavérune, Montpellier",stationné sur la PC,,2023-05-31 18:43:00,2,Montpellier
05CC1004,43.60739676035238,3.8700379426983167,"Cours Gambetta, Montpellier",au travers du trottoir,,2023-05-31 15:58:00,2,Montpellier
09B5CAA4,43.60702634427986,3.892387859523296,"Rue de l'Acropole, Montpellier",,,2023-05-31 10:30:00,2,Montpellier
C9BC016D,43.6152306546952,3.856565952301026,"Avenue de l'École d'Agriculture Gabriel Buchet, Montpellier",Véhicule gênant ,"Véhicule mal garés, et avec la nouvelle piste cyclable les vélos cargos ne peuvent plus passer ",2023-05-31 09:18:00,2,Montpellier
82F7C2CE,43.605447401347675,3.879468805704889,"Rue Pagézy, Montpellier","@GROUPENICOLLIN stationné en ZdR, as susual",,2023-05-31 06:50:00,2,Montpellier
0AF49A65,43.60573484691587,3.8795761599422693,"Rue Pagézy, Montpellier",camion sur trottoir en Zdr,,2023-05-31 06:50:00,2,Montpellier
D323DCDA,43.605619868859335,3.8765254731342185,"Place Alexandre Laissac, Montpellier","mise en danger, alercation, PM contactée",,2023-05-31 06:48:00,9,Montpellier
9656D69C,43.60562550123874,3.8765195406474766,"Place Alexandre Laissac, Montpellier","sur la PC, mise en danger des cyclistes et piéton","place de livraison 10m derrière, refus du livreur de se déplacer, rien à battre, PM appelée",2023-05-31 06:46:00,2,Montpellier
DBE7BC20,43.59784901780905,3.8460215989534423,"Rue du Pas du Loup, Montpellier",ambulance à contresens sur la BC !,,2023-05-31 06:32:00,2,Montpellier
31F3AC7B,43.59784901780905,3.845908956641244,"Rue du Pas du Loup, Montpellier",sur la PC et trottoir,,2023-05-31 06:31:00,2,Montpellier
F92BE9F7,43.58979430519861,3.8528269529342656,"Rue Jacques Fouroux, Montpellier",sur le passage piéton,,2023-05-30 16:56:00,2,Montpellier
FAF79EAA,43.59113553704619,3.845313041100372,"Avenue du XV de France, Montpellier",trottoir barré,,2023-05-30 16:14:00,2,Montpellier
6160D7E0,43.601228785422336,3.8509879738580066,"Route de Lavérune, Montpellier",scooters ou motos sur PC,,2023-05-30 16:02:00,7,Montpellier
EB62F581,43.6135084176447,3.8275726139545436,"Allée Pierre Lescot, Montpellier",,,2023-05-30 15:00:00,4,Montpellier
29AEF86C,43.59603590792244,3.8954103738069534,"Avenue du Pont Trinquat, Montpellier",les arbres plantés dans la piste cyclable,,2023-05-30 14:22:00,3,Montpellier
275972D8,43.60645340628472,3.8800385004427933,"Rue du Clos René, Montpellier",stationnement sur le trottoir,,2023-05-30 06:40:00,2,Montpellier
B8BD4516,43.605490081286646,3.8794864747480378,"Rue Pagézy, Montpellier",@GROUPENICOLLIN stationné en zone de rencontre,,2023-05-30 06:39:00,2,Montpellier
DBA35BFC,43.60194812698433,3.8568206109007535,"Rue des Chasseurs, Montpellier","sccotard à contresens, via la BC",,2023-05-30 06:31:00,2,Montpellier
31DE7305,43.60241743759606,3.8540751998261156,"Route de Lavérune, Montpellier",motard sur la piste cyclable,,2023-05-30 06:30:00,7,Montpellier
62305DDB,43.59804321391974,3.8461629592852025,"Rue du Pas du Loup, Montpellier","à contresens, à moitié sur la BC",,2023-05-30 06:25:00,2,Montpellier
E9B5FF31,43.59828868971199,3.8464036697874135,"Rue du Pas du Loup, Montpellier",trottoir impraticable,,2023-05-30 06:25:00,2,Montpellier
4910ECC8,43.597732470712096,3.845922934910666,"Rue du Pas du Loup, Montpellier",sur la BC et devant passage piéton,,2023-05-29 16:19:00,2,Montpellier
09D5B959,43.59783347820916,3.845906659631742,"Rue du Pas du Loup, Montpellier","depuis 2 jours, sur PC et trottoir",,2023-05-29 16:18:00,2,Montpellier
9D073108,43.598311319069936,3.8463517617057397,"Rue du Pas du Loup, Montpellier",Trottoirs transformés en parking,,2023-05-29 16:18:00,2,Montpellier
128A6110,43.605645505872864,3.8796164730255804,"Rue Pagézy, Montpellier",Zone de rencontre transformée en parking,,2023-05-29 16:06:00,2,Montpellier
DA0A70D0,43.60548546855422,3.87949346249286,"Rue Pagézy, Montpellier","festival @GroupeNicollin en ZdR, as usual",,2023-05-29 06:45:00,2,Montpellier
8674ED2D,43.60736937615417,3.870057446191498,"Cours Gambetta, Montpellier",tranquillou au mileu du trottoir et PC,,2023-05-29 06:41:00,2,Montpellier
B8277F6A,43.59784901780905,3.8459068017606906,"Rue du Pas du Loup, Montpellier",camionnette sur trottoir et PC,"déjà là la veille, voire l'avant veille",2023-05-29 06:32:00,2,Montpellier
289E2337,43.597553764724964,3.84567637116057,"Rue Hébert, Montpellier",sur trottoir,,2023-05-29 06:32:00,2,Montpellier
EB688EA7,43.5943525067022,3.8403273482073983,"Rue de Cheng Du, Montpellier",plates bandes transformées en parking,,2023-05-28 07:57:00,2,Montpellier
7F36DE58,43.59408831760787,3.8406266086112955,"Rue de Cheng Du, Montpellier",toujours les mêmes...,,2023-05-28 07:57:00,2,Montpellier
FFA8CFF6,43.59317452522058,3.840858866492063,"Rue Christian Bénézech, Montpellier",sur le trottoir,,2023-05-28 07:56:00,2,Montpellier
ED4C3915,43.592475961967516,3.8413887100472137,"Rue du Pas du Loup, Montpellier",trottoirs condamnés,,2023-05-28 07:56:00,2,Montpellier
282A64C2,43.59232754538541,3.8426613732873665,"Rue du Pas du Loup, Montpellier","sur le trottoir, un.e habitué.e",,2023-05-28 07:55:00,2,Montpellier
1C1248B1,43.59648074067092,3.844887604276202,"Rue du Pas du Loup, Montpellier",sas vélo effacés,,2023-05-28 07:53:00,6,Montpellier
7375A945,43.59789214018658,3.8459725174155683,"Rue du Pas du Loup, Montpellier",trottoir et PC condamnés,,2023-05-28 06:57:00,2,Montpellier
9E679572,43.6154,3.82974,"Avenue des Moulins, Montpellier","sur le trottoir, problème récurrent ",,2023-05-27 14:50:00,2,Montpellier
2D59A3E9,43.630437602365866,3.8932713121175766,"Rue de la Draye, Montpellier",scooter domaine Meric,,2023-05-27 13:14:00,2,Montpellier
01020A18,43.60963,3.86386,"Avenue de Lodève, Montpellier",,,2023-05-27 08:40:00,2,Montpellier
E90A37D1,43.60993,3.86186,"Avenue de Lodève, Montpellier",comme tous les jours,,2023-05-27 08:38:00,2,Montpellier
D5B8187E,43.61522016849326,3.8772663430801306,"Quai des Tanneurs, Montpellier","sur la PC, cyclistes renvoyés sur la route !",,2023-05-26 18:30:00,2,Montpellier
391A648D,43.616951143318836,3.873496045629046,"Avenue Bouisson Bertrand, Montpellier",scootard tente de passer en force sur la PC,"blocage par les cyclistes, le scootard insiste, finit par passer par la voie de tramway en insultant.",2023-05-26 18:28:00,9,Montpellier
51FFB80A,43.591134954255146,3.84625421730974,"Rue de Bugarel, Montpellier",sur PC + devant le PP alors que parking à côté ,,2023-05-26 11:52:00,2,Montpellier
4147220E,43.59019527914125,3.8522664606352923,"Rue Jacques Fouroux, Montpellier","Sur passage piéton, à côté d'une école !",,2023-05-26 08:36:00,2,Montpellier
947035A6,43.59988467069566,3.8668952286025164,"Avenue de Toulouse, Montpellier",camion sur la piste cyclable,,2023-05-26 07:44:00,2,Montpellier
75A3DFEF,43.599795320964496,3.8755875232947017,"Boulevard Vieussens, Montpellier",rien pour fixer son vélo autour du carrefour,,2023-05-26 07:36:00,5,Montpellier
